Industry,Business Name,Longitude,Latitude,Location
Garage,"PARKANLEX GARAGE COMPANY, LLC",-73.96162515,40.7727369,"(40.7727369020104, -73.96162515178469)"
Garage,"LAZ PARKING NEW YORK / NEW JERSEY, LLC",-73.95920715,40.7593829,"(40.759382903747536, -73.95920714880465)"
Garage,"919 THIRD AVENUE GARAGE COMPANY, LLC",-73.96833251,40.759136,"(40.759136001913056, -73.96833250581118)"
Garage,EASTSIDE PARKING LLC,-73.96181177,40.75580465,"(40.75580464922225, -73.9618117706841)"
Garage,EAST 72ND REALTY LLC,-73.95342975,40.76730753,"(40.76730753011028, -73.95342974946078)"
Garage,SP PLUS CORPORATION,-73.99081169,40.74561937,"(40.74561936554576, -73.99081168576616)"
Garage,MARTIN GARAGE LLC,-73.96909676,40.75349301,"(40.753493013032916, -73.9690967609295)"
Garage,EAST 102ND ST REALTY LLC,-73.94319587,40.78759753,"(40.78759752527264, -73.94319586809269)"
Garage,SCR PARKING CORP.,-73.9543742,40.77987881,"(40.779878810426034, -73.95437420287168)"
Garage,"CHARLES PARKING, LLC",-73.98114462,40.7412705,"(40.74127050417237, -73.98114461567869)"
Garage,311 WEST BROADWAY GARAGE LLC,-74.00430751,40.72172931,"(40.7217293128447, -74.00430750767096)"
Garage,HUDSON TOWER OWNERS LLC,-74.01702146,40.71023308,"(40.710233077636246, -74.01702145983843)"
Garage,"TOWNSWAY GARAGE CO., LLC",-73.98260236,40.74190477,"(40.741904771091974, -73.98260235921838)"
Garage,SKY PARKING CORP.,-74.00945482,40.71629164,"(40.71629163664359, -74.00945482122404)"
Garage,SAVOY GARAGE PARTNERS LLC,-73.95631324,40.77979722,"(40.77979721976259, -73.95631324462099)"
Garage,"SESSANTA PARKING CO., LLC",-73.98813648,40.77147736,"(40.77147735696765, -73.9881364791966)"
Garage,ALVA 47 PARKING LLC,-73.98635534,40.75994376,"(40.759943756370866, -73.9863553428057)"
Garage,100 RIVERSIDE PARKING LLC,-73.98952932,40.77623687,"(40.7762368677648, -73.9895293154859)"
Garage,PLAZA 48 PARKING LLC,-77.51958437,40.11238534,"(40.11238533659802, -77.51958437167269)"
Garage,171 EAST 84 PARTNERS LLC,-73.95579818,40.77787296,"(40.77787296318347, -73.95579818124413)"
Garage,310 EAST 48TH STREET GARAGE LLC,-77.51958437,40.11238534,"(40.11238533659802, -77.51958437167269)"
Garage,142 WEST 57TH STREET PARKING CORP.,-73.9791993,40.76515221,"(40.7651522082792, -73.97919929536859)"
Garage,EAST 29 PARKING LLC,-73.98475258,40.74443025,"(40.744430246193104, -73.98475257860477)"
Garage,8 EAST 83RD GARAGE LLC,-73.96139384,40.77938732,"(40.77938732345622, -73.96139384172834)"
Garage,MP WEST 58 LLC,-73.98519814,40.7693965,"(40.76939650442512, -73.98519813889219)"
Garage,"YORKVILLE CAR PARK, LLC",-73.95138989,40.78235883,"(40.78235883104077, -73.9513898890611)"
Garage,512-520 W. 112TH ST. GARAGE CORP.,-73.96365127,40.80455449,"(40.80455449277205, -73.96365126650205)"
Garage,"LIBERTY VIEW PARKING, LLC",-74.01664405,40.71553876,"(40.71553875732529, -74.01664404904123)"
Garage,SP PLUS CORPORATION,-73.94724658,40.77980989,"(40.77980989428275, -73.94724657990747)"
Garage,MPC PARKING LLC,-73.96471875,40.76007091,"(40.76007090957663, -73.96471874680586)"
Garage,SP PLUS CORPORATION,-73.96223132,40.80522649,"(40.80522649394652, -73.96223132312306)"
Garage,NEW YORK PARKING 56TH ST. CORP,-73.97641311,40.76312056,"(40.76312056238381, -73.97641311026375)"
Garage,SP PLUS CORPORATION,-73.98832074,40.77072257,"(40.77072257250959, -73.98832073803278)"
Garage,"IMPACT CAR PARK, LLC",-73.99841563,40.74776886,"(40.74776885959998, -73.99841563232964)"
Garage,"350 WEST 43RD CAR PARK, LLC",-73.99074493,40.75850595,"(40.75850594678067, -73.9907449349766)"
Garage,"ABM INDUSTRY GROUPS, LLC",-73.98396172,40.76157383,"(40.76157382560385, -73.98396172072285)"
Garage,CA-LI AUTOMATIC TRANSMISSION CORP.,-73.96237834,40.80074715,"(40.80074714936068, -73.96237834107102)"
Garage,NOBLE GARAGE LLC,-73.97352761,40.74801286,"(40.74801285574871, -73.973527609107)"
Garage,"CENTRAL PARKING SYSTEM OF NEW YORK,INC.",-73.94889038,40.83508938,"(40.83508937720585, -73.94889038145108)"
Garage,SP PLUS CORPORATION,-73.97515586,40.78520172,"(40.785201715449034, -73.97515585869253)"
Garage,"CHAMPION PARKING 16, LLC",-73.98915317,40.73586712,"(40.73586711990034, -73.98915316963569)"
Garage,MINETTA LANE OWNERS LLC,-74.00051596,40.73061417,"(40.73061417010677, -74.0005159595695)"
Garage,BENNETTE NY CORP,-73.93174434,40.85845442,"(40.85845442484461, -73.93174434222108)"
Garage,SP PLUS CORPORATION,-77.51958437,40.11238534,"(40.11238533659802, -77.51958437167269)"
Garage,"BOND STREET GARAGE, LLC",-73.99356354,40.72635687,"(40.726356874872856, -73.99356354496895)"
Garage,SP PLUS CORPORATION,-73.96234365,40.76630072,"(40.76630072356024, -73.96234364868319)"
Garage,EAST HARLEM 119 CORP,-73.93352217,40.79774237,"(40.79774236622654, -73.93352217328395)"
Garage,"300 EAST 74TH STREET CAR PARK, LLC",-73.95705257,40.7699631,"(40.76996310160079, -73.95705257462451)"
Garage,M H M PARKING LLC,-73.97671091,40.74767868,"(40.74767868405495, -73.9767109092079)"
Garage,85 JOHN STREET GARAGE LLC,-74.00673409,40.70836496,"(40.708364955484, -74.00673409085468)"
Garage,SP PLUS CORPORATION,-73.96652461,40.77241455,"(40.772414550411575, -73.9665246149568)"
Garage,NEW YORK PARKING 57TH ST. CORP.,-73.97010747,40.76132678,"(40.76132678168594, -73.9701074724464)"
Garage,E 74TH PARKING CORP.,-73.95633432,40.76967738,"(40.76967737867243, -73.95633432397234)"
Garage,507 WEST 28TH STREET PARKING CORP.,-74.00278632,40.75121898,"(40.751218984880204, -74.00278632161532)"
Garage,MP WEST 20 LLC,-73.99622167,40.74188681,"(40.7418868099037, -73.9962216708414)"
Garage,315 EAST 65TH PARKING LLC,-73.96042768,40.76467519,"(40.764675194289836, -73.96042768193381)"
Garage,QUIK PARK WEST 62ND ST. LLC,-73.98343894,40.77354357,"(40.77354356574465, -73.9834389353258)"
Garage,STELLMAR PARKING LLC,-73.96844056,40.76725498,"(40.76725498013537, -73.96844055824718)"
Garage,301 EAST 79 PARKING LLC,-73.95469289,40.77319276,"(40.7731927560976, -73.95469288994452)"
Garage,"LASALLE PARKING, LLC",-73.98837845,40.7296639,"(40.72966389945646, -73.98837844699989)"
Garage,MTP 57 LLC,-73.99305379,40.7710139,"(40.77101389742397, -73.99305378723928)"
Garage,"ABM INDUSTRY GROUPS, LLC",-73.96683398,40.75292422,"(40.752924221203685, -73.96683398271284)"
Garage,STELLMAR PARKING LLC,-73.96842252,40.76722753,"(40.76722752778376, -73.9684225207926)"
Garage,"CARNEGIE CAR PARK, INC.",-77.51958437,40.11238534,"(40.11238533659802, -77.51958437167269)"
Garage,SP PLUS CORPORATION,-73.93256442,40.79481318,"(40.79481318364258, -73.9325644155404)"
Garage,SP PLUS CORPORATION,,,
Garage,ONE BEEKMAN GARAGE LLC,-73.96499702,40.75258058,"(40.75258058429668, -73.96499702064426)"
Garage,"LM CHASE PARKING, LLC.",-73.96649694,40.7556524,"(40.75565240137531, -73.96649694406797)"
Garage,"NEW 12TH STREET GARAGE, LLC",-73.99249472,40.73428366,"(40.73428366340385, -73.99249472023192)"
Garage,"LAZ PARKING NEW YORK / NEW JERSEY, LLC",-73.9743457,40.73229385,"(40.73229384830371, -73.9743456988601)"
Garage,"CENTRAL PARKING SYSTEM OF NEW YORK,INC.",-74.01588552,40.71135036,"(40.711350358344696, -74.01588551929983)"
Garage,CHAMPION BROADWAY PARKING CORP,-73.99313013,40.7308857,"(40.730885697091544, -73.99313013269732)"
Garage,"DUFORD STUDIO GARAGE COMPANY, LLC",-73.95743029,40.77773085,"(40.77773085137098, -73.95743029494066)"
Garage,SP PLUS CORPORATION,-73.9562624,40.77474963,"(40.77474962918762, -73.95626239850044)"
Garage,CHAMPION PARKING 74 LLC.,-73.98194614,40.7797684,"(40.77976840490512, -73.98194613812201)"
Garage,"LAZ PARKING NEW YORK, NEW JERSEY LLC",-73.98851437,40.77837218,"(40.77837217617517, -73.98851437395707)"
Garage,54TH & 2ND PARKING LLC,-73.96588943,40.75785076,"(40.75785076399684, -73.96588942814309)"
Garage,QUIK PARK 485 GARAGE LLC,-73.97399435,40.75424354,"(40.75424353857112, -73.97399435355865)"
Garage,"CENTRAL PARKING SYSTEM OF NEW YORK, INC.",-73.9464601,40.76550121,"(40.76550120689976, -73.9464601035681)"
Garage,QUIK PARK EAST 46TH STREET LLC,-73.96999967,40.75222243,"(40.75222243399849, -73.96999967023007)"
Garage,"CARLYLE CAR PARK, LLC",-73.96299632,40.7741454,"(40.77414540134402, -73.96299631788466)"
Garage,SP PLUS CORPORATION,-73.96078858,40.76484549,"(40.76484549169191, -73.96078857711855)"
Garage,164TH NY CORP,-73.92617845,40.86381414,"(40.86381414107794, -73.92617845317197)"
Garage,PROPARK AMERICA NEW YORK LLC,-73.96975741,40.75319401,"(40.75319401100529, -73.96975740741871)"
Garage,"LAZ PARKING NEW YORK / NEW JERSEY, LLC",-73.97870373,40.73439173,"(40.7343917289481, -73.97870373393607)"
Garage,220 RIVERSIDE PARKING LLC,-73.98788226,40.77968958,"(40.77968958467983, -73.98788226229857)"
Garage,"WEAP HOLDINGS, LLC",-73.98519618,40.77819065,"(40.77819064507763, -73.98519618406543)"
Garage,20166 PARKING LLC,-73.96256742,40.76639686,"(40.76639686242807, -73.96256741728568)"
Garage,200 CPS MANAGEMENT LLC,-73.97944781,40.76702142,"(40.76702142171206, -73.97944780718524)"
Garage,5TH AVENUE PROPERTY & PARKING LLC,-73.94860847,40.79770616,"(40.79770616396137, -73.94860847303094)"
Garage,COLUMBUS 60TH REALTY LLC,-73.98318365,40.76937976,"(40.769379759576935, -73.98318364590243)"
Garage,420 EAST 51ST PARKING PARTNERS LLC,-73.96494204,40.75417801,"(40.75417801007669, -73.96494204046672)"
Garage,SP PLUS CORPORATION,-74.01605134,40.71093588,"(40.710935876220056, -74.0160513445338)"
Garage,SP PLUS CORPORATION,-73.97874176,40.762218,"(40.762217995255064, -73.97874176445413)"
Garage,"WINDSOR NEW PARTNERS, LLC.",-73.95558612,40.7710028,"(40.771002802037145, -73.95558612332778)"
Garage,ENTERPRISE 57 PARKING LLC,-73.99194548,40.77053075,"(40.77053075115638, -73.99194548427923)"
Garage,SBC PARKING LLC,-73.95692167,40.78257512,"(40.782575120960765, -73.9569216683334)"
Garage,132 WEST 56TH ST. GARAGE CORP.,-73.97981318,40.7645375,"(40.76453749531048, -73.97981317829316)"
Garage,SP PLUS CORPORATION,-73.98043597,40.74583765,"(40.74583765042107, -73.98043597211861)"
Garage,SP PLUS CORPORATION,-73.95695239,40.77414879,"(40.77414879137533, -73.95695239253023)"
Garage,"BATTERY PLACE CAR PARK, LLC",-74.01790412,40.70628323,"(40.70628322913576, -74.01790411531843)"
Garage,"RUPPERT CAR PARK, LLC",-73.9520441,40.7814753,"(40.78147530043751, -73.95204410072269)"
Garage,"ABM INDUSTRY GROUPS, LLC",-73.96855471,40.76251484,"(40.76251484208311, -73.96855470923397)"
Garage,"SEVEN ELEVEN CAR PARK, LLC",-73.97326601,40.7523742,"(40.75237419947105, -73.9732660072224)"
Garage,SP PLUS CORPORATION,-73.97494089,40.79030138,"(40.79030138157387, -73.9749408863875)"
Garage,SP PLUS CORPORATION,-73.9397612,40.8399486,"(40.83994859762669, -73.93976119883386)"
Garage,CHAMPION PARKING 68 LLC,-73.97776687,40.77375396,"(40.773753955751594, -73.97776687182275)"
Garage,"550 WEST 25TH CAR PARK, LLC",-74.00487595,40.74966264,"(40.749662643540326, -74.00487594891239)"
Garage,LA MARINA PARKING LLC,-73.92917929,40.86710966,"(40.86710965901609, -73.92917928857699)"
Garage,300 E. 34 PARKING LLC,-73.97578807,40.74473063,"(40.744730633043375, -73.9757880681296)"
Garage,"ABM INDUSTRY GROUPS, LLC",-73.98237763,40.74564583,"(40.74564583140683, -73.98237762904651)"
Garage,"CENTRAL PARKING SYSTEM OF NEW YORK, INC.",-73.97116129,40.75352374,"(40.75352374061433, -73.97116129485991)"
Garage,MP 41 LLC,-73.99450971,40.75921159,"(40.75921158697373, -73.994509710213)"
Garage,"MUTUAL PARKING SYSTEM, INC.",-73.96103496,40.76329205,"(40.763292051127415, -73.96103496347446)"
Garage,QUIK PARK TRUFFLES LLC,-73.99413851,40.75246498,"(40.75246498456307, -73.99413850914024)"
Garage,FREMAN GARAGE CORP.,-73.97191517,40.78891459,"(40.78891459455307, -73.97191516531355)"
Garage,EAST 81ST REALTY LLC,-73.95761544,40.77614995,"(40.776149951057945, -73.95761544497206)"
Garage,PROPARK AMERICA NEW YORK LLC,-73.97415976,40.73725907,"(40.73725906616648, -73.974159755213)"
Garage,VALET PARKING CORP.,-73.99379346,40.73696536,"(40.73696536466138, -73.99379346117647)"
Garage,10 WEST 66TH STREET CAR PARK LLC,-73.97932331,40.77265909,"(40.77265909494036, -73.97932331414397)"
Garage,"LAZ PARKING NEW YORK / NEW JERSEY, LLC",-73.98657207,40.7592274,"(40.75922740367878, -73.98657206908341)"
Garage,SP PLUS CORPORATION,-73.99457248,40.7419636,"(40.7419635970152, -73.9945724798417)"
Garage,CHAMPION PARKING 76 ST LLC.,-73.98007529,40.78134357,"(40.78134357469427, -73.98007528666675)"
Garage,10 WEST 21ST LLC,-73.99105057,40.74047847,"(40.74047846683586, -73.99105056517622)"
Garage,SEWARD PARK GARAGE LLC,-73.98633552,40.71582735,"(40.71582734941432, -73.98633551568459)"
Garage,SP PLUS CORPORATION,-73.95499628,40.77836396,"(40.77836396065379, -73.95499628065888)"
Garage,"ABM INDUSTRY GROUPS, LLC",-73.97448277,40.76067458,"(40.76067458494577, -73.97448276692938)"
Garage,MURRAY 38 PARKING LLC,-73.97671425,40.74843349,"(40.74843349058, -73.97671425441138)"
Garage,"CENTRAL PARKING SYSTEM OF NEW YORK,INC.",-73.97535165,40.76353754,"(40.76353754103234, -73.97535165418176)"
Garage,SP PLUS CORPORATION,-73.94694233,40.77193785,"(40.77193784683975, -73.94694232580065)"
Garage,SP PLUS CORPORATION,-73.97483091,40.78506441,"(40.785064408269015, -73.97483091455368)"
Garage,181 EAST 73 STREET GARAGE LLC,-73.96069127,40.77068901,"(40.77068901175136, -73.96069126920963)"
Garage,CHAMPION CONFUCIUS LLC,-73.9973018,40.71407972,"(40.71407971599437, -73.997301804056)"
Garage,"EAST 39TH REALTY, LLC",-73.97518786,40.7477909,"(40.74779090072466, -73.97518785539275)"
Garage,SP PLUS CORPORATION,-73.99589008,40.73523626,"(40.735236264133526, -73.99589007891272)"
Garage,CHAMPION PARKING 80 LLC,-73.95090969,40.7724913,"(40.772491297996105, -73.95090969070989)"
Garage,IMPERIAL PARKING US LLC,-73.98143062,40.77682322,"(40.77682322097574, -73.98143061899712)"
Garage,SAMO PARKING LLC,-73.95469575,40.76898507,"(40.76898507148451, -73.95469575246041)"
Garage,BRISTOL 65 PARKING LLC,-73.96351393,40.76516203,"(40.7651620323398, -73.9635139262716)"
Garage,338 EAST 59TH STREET GARAGE LLC,-73.96276597,40.75994404,"(40.75994403675519, -73.9627659674019)"
Garage,BATTERY 17 PARKING LLC,-74.01592726,40.70488369,"(40.70488368980268, -74.01592725890914)"
Garage,MP WATTS LLC,-74.01021359,40.72430078,"(40.72430077866735, -74.01021358858705)"
Garage,124 WEST 20TH STREET GARAGE LLC,-73.99517517,40.74144487,"(40.74144486591646, -73.99517517423351)"
Garage,W 155 Operating LLC,-73.9405069,40.83051541,"(40.83051541051173, -73.94050689878313)"
Garage,59 AND 5TH PARKING LLC,-73.97318913,40.76402013,"(40.76402013271872, -73.97318913426022)"
Garage,REDBALL OWNERS LLC,-73.98073234,40.74433083,"(40.74433083281106, -73.98073234044917)"
Garage,575 LEX GARAGE LLC,-73.97182746,40.75721559,"(40.757215588426654, -73.97182746323014)"
Garage,SP PLUS CORPORATION,-74.01613786,40.71071628,"(40.71071628312301, -74.01613786041958)"
Garage,TOWER EAST GARAGE CORP.,-73.96151525,40.76924556,"(40.76924555671884, -73.96151524729282)"
Garage,TWO FIFTH GARAGE PARTNERS LLC,-73.99660831,40.73192062,"(40.73192062465118, -73.99660831115821)"
Garage,SP PLUS CORPORATION,-73.91456116,40.87038791,"(40.87038790734767, -73.91456116001805)"
Garage,PARK 108 LLC,-73.96599671,40.80225238,"(40.80225238361694, -73.96599670659785)"
Garage,ONE PARKING 89TH STREET LLC,-73.97455097,40.79002133,"(40.79002133354373, -73.974550968311)"
Garage,CHAMPION PARKING 82 LLC,-73.94655918,40.77250034,"(40.77250034131399, -73.94655917747835)"
Garage,SP PLUS CORPORATION,-73.97590088,40.76209118,"(40.76209117784194, -73.97590088118818)"
Garage,333 EAST 46TH ST. PARKING CORP.,-73.96946198,40.75201095,"(40.75201094718569, -73.9694619845396)"
Garage,CHAMPION PARKING 113 LLC,-73.96064624,40.80411709,"(40.80411709476889, -73.96064624355729)"
Garage,METROPOLITAN 51 PARKING LLC,-73.97204416,40.75691646,"(40.75691646401178, -73.97204416177084)"
Garage,QUIK PARK 3RD AVE LLC,-73.9631198,40.7663147,"(40.76631469833123, -73.96311980008728)"
Garage,SP PLUS CORPORATION,-74.01544187,40.71142453,"(40.71142452729361, -74.01544186734169)"
Garage,SAWYER PARKING LLC,-77.51958437,40.11238534,"(40.11238533659802, -77.51958437167269)"
Garage,NEW YORK PARKING 51ST STREET CORP.,-73.96917141,40.75597977,"(40.75597977288785, -73.96917140638074)"
Garage,QUIK PARK BLOOM LLC,-73.9669411,40.76253086,"(40.76253085881044, -73.9669411040366)"
Garage,SP PLUS CORPORATION,-73.97649646,40.74175273,"(40.74175272557469, -73.97649645790503)"
Garage,"SAVANNAH GARAGE, LLC",-73.97553671,40.79041953,"(40.79041953302292, -73.97553671469177)"
Garage,MP 30 YARDS LLC,-74.0022522,40.75258588,"(40.752585880533076, -74.00225220254441)"
Garage,IMPARK WATER LLC,-74.00978123,40.70359708,"(40.7035970814381, -74.00978122562515)"
Garage,"LAZ PARKING NEW YORK / NEW JERSEY, LLC",-73.9475644,40.83473746,"(40.83473745887964, -73.94756440326175)"
Garage,"IPARK U, Inc",-73.95228909,40.77216525,"(40.77216525347162, -73.95228908882459)"
Garage,SP PLUS CORPORATION,-73.97363493,40.75041453,"(40.750414534963774, -73.97363493016515)"
Garage,AP 127TH MANAGEMENT LLC.,-73.95063154,40.81165574,"(40.811655742292835, -73.95063154078338)"
Garage,IMPARK 85 LLC,-73.94611102,40.77308476,"(40.77308476199404, -73.94611101756917)"
Garage,"LAZ PARKING NEW YORK, NEW JERSEY LLC",-73.98891534,40.77726883,"(40.777268831401315, -73.98891534495534)"
Garage,"30 OPERATING, LLC",-73.99612737,40.75002499,"(40.750024988345196, -73.99612737110338)"
Garage,SP PLUS CORPORATION,-73.9943595,40.74269369,"(40.742693690462986, -73.99435950334471)"
Garage,79TH STREET REALTY LLC,-73.95385914,40.77282463,"(40.77282463024915, -73.95385913884142)"
Garage,400 EAST 56 PARKING LLC,-73.96307776,40.75748759,"(40.75748759081678, -73.96307776310553)"
Garage,SP PLUS CORPORATION,-73.98436487,40.76645678,"(40.76645677725682, -73.98436487052675)"
Garage,GEMA PARKING CORP.,-73.98403018,40.73197721,"(40.731977207073484, -73.98403018336167)"
Garage,SP PLUS CORPORATION,-73.96213711,40.76130522,"(40.761305224664106, -73.9621371061817)"
Garage,CHAMPION PARKING 245 LLC,-73.95687871,40.77085233,"(40.77085233235716, -73.95687870727632)"
Garage,345 EAST GARAGE CORP.,-73.95312941,40.77342818,"(40.77342817824794, -73.95312941398454)"
Garage,150 EAST 18TH STREET PARKING CORP,-73.98558816,40.73549893,"(40.73549893199463, -73.98558815662872)"
Garage,SP PLUS CORPORATION,-73.97866897,40.76407343,"(40.7640734277385, -73.97866897380925)"
Garage,"CONNAUGHT CAR PARK, LLC",-73.96635177,40.7572251,"(40.75722509813542, -73.96635177101938)"
Garage,"MUTUAL PARKING, INC.",-73.94629946,40.77221477,"(40.772214767689476, -73.94629946047505)"
Garage,ENTERPRISE 24TH PARKING LLC,-73.98210868,40.73925327,"(40.739253265596076, -73.98210867654875)"
Garage,WEST 43 PARKING LLC,-73.99937912,40.76128125,"(40.761281252805055, -73.99937911953567)"
Garage,"60 SUTTON PLACE PARKING ASSOCIATES, LLC",-73.96223076,40.75528603,"(40.75528603041633, -73.96223076369402)"
Garage,SP PLUS CORPORATION,-73.98653581,40.76001789,"(40.7600178856856, -73.98653581270592)"
Garage,SP PLUS CORPORATION,-73.9823176,40.76787002,"(40.767870022779476, -73.98231759655258)"
Garage,305 EAST 80TH PARKING LLC,-73.95418696,40.77387325,"(40.77387325121576, -73.95418696351773)"
Garage,LEXINGTON 58 PARKING LLC,-73.96818343,40.76139763,"(40.76139762970629, -73.96818342968352)"
Garage,SP PLUS CORPORATION,-73.98153267,40.76037401,"(40.76037400898184, -73.98153266736522)"
Garage,"LAZ PARKING NEW YORK / NEW JERSEY, LLC",-73.97905155,40.72989588,"(40.729895884616575, -73.97905154546305)"
Garage,"50 EAST 79TH STREET CAR PARK, LLC",-73.96161599,40.77609646,"(40.77609645836829, -73.96161599460098)"
Garage,MP 17 LLC,-74.00595455,40.74369002,"(40.74369001903055, -74.005954548088)"
Garage,35 PARK AVENUE GARAGE LLC,-73.98050024,40.74821461,"(40.74821461387969, -73.98050023719544)"
Garage,RAPID PARK HOLDING CORP,-73.95485707,40.76534561,"(40.765345608022415, -73.95485706771842)"
Garage,EAST 71ST STREET GARAGE CORP.,-73.96316472,40.76994326,"(40.7699432598359, -73.96316472378017)"
Garage,CHAMPION PARKING 33 LLC,-73.98156891,40.74679301,"(40.746793010007295, -73.98156891291487)"
Garage,LHL PARKING CO LLC,-73.98379875,40.76376685,"(40.763766852193235, -73.98379874691466)"
Garage,"SAM PARKING, L.L.C.",-74.00325414,40.72300292,"(40.72300291526141, -74.0032541425205)"
Garage,MP BETH PARKING LLC,-73.9500049,40.77541131,"(40.775411310681285, -73.95000490395303)"
Garage,"LAURENCE TOWERS GARAGE CO., LLC",-73.97827452,40.74490679,"(40.744906792889005, -73.97827452453438)"
Garage,SP PLUS CORPORATION,-73.98896349,40.74818829,"(40.74818828826226, -73.98896349236394)"
Garage,CLICK PARKING CORP.,-73.97094627,40.78310101,"(40.783101009656214, -73.97094627103644)"
Garage,SLATE PARKING CORP.,-73.98054349,40.73606361,"(40.736063609346914, -73.98054348565344)"
Garage,38TH & THIRD PARKING LLC,-73.97600337,40.74813417,"(40.74813416708923, -73.97600337463021)"
Garage,ALLIANCE AMHERST PARKING LLC,-73.95469575,40.76898507,"(40.76898507148451, -73.95469575246041)"
Garage,UNI. FACILITY CORP.,-73.95810901,40.81805665,"(40.818056645622136, -73.95810900523493)"
Garage,QUIK PARK SWIFT LLC,-73.96935358,40.76012713,"(40.76012713066171, -73.9693535819049)"
Garage,"MUTUAL PARKING, INC.",-73.94657728,40.77244271,"(40.77244271018476, -73.94657727560529)"
Garage,245 EAST 40TH ST. PARKING LLC,-77.51958437,40.11238534,"(40.11238533659802, -77.51958437167269)"
Garage,SP PLUS CORPORATION,-73.9625461,40.7786329,"(40.77863290127972, -73.96254609596876)"
Garage,SP PLUS CORPORATION,-73.98036424,40.75658332,"(40.75658332376546, -73.98036423524069)"
Garage,"ALMAR GARAGE, INC.",-73.96511456,40.76935375,"(40.76935374759555, -73.96511456215681)"
Garage,43RD & 11TH GARAGE LLC,-73.99879434,40.76103422,"(40.76103422127824, -73.99879434124438)"
Garage,169 LUDLOW PARKING LLC,-73.98830405,40.72185231,"(40.7218523134901, -73.98830404884531)"
Garage,PRION CORP,-73.95566498,40.77186468,"(40.77186468057639, -73.95566497609501)"
Garage,SP PLUS CORPORATION,-73.94351331,40.83908317,"(40.83908316793566, -73.94351330662326)"
Garage,OXFORD PARKING CORP.,-73.96807874,40.753877,"(40.75387699991748, -73.96807874069368)"
Garage,53RD STERLING PARKING LLC,-73.96673471,40.75657745,"(40.75657744949869, -73.9667347068204)"
Garage,SP PLUS CORPORATION,-73.94952055,40.81422432,"(40.814224320719624, -73.94952055422276)"
Garage,WOC CIELO GARAGE COMPANY LLC,-73.94989003,40.77453294,"(40.77453294461096, -73.94989002774679)"
Garage,SP PLUS CORPORATION,-73.99092744,40.77012445,"(40.77012445404388, -73.99092744306279)"
Garage,SP PLUS CORPORATION,-73.97225418,40.78131176,"(40.781311764946494, -73.97225418170498)"
Garage,WEST 64TH STREET LLC,-73.98217555,40.77254429,"(40.77254429244348, -73.98217555057616)"
Garage,TOWNHOUSE PARKING LLC,-73.96077068,40.77071923,"(40.77071923095086, -73.96077067757834)"
Garage,225 W. 49 DEVELOPMENT LLC.,-73.98509531,40.76104973,"(40.761049731886665, -73.98509531082307)"
Garage,CAPITAL PARKING LLC,-73.96557923,40.76439414,"(40.76439414013388, -73.96557923212998)"
Garage,"EMBASSY GARAGE PARTNERS, LLC",-73.95851786,40.77651258,"(40.77651258478388, -73.95851786321268)"
Garage,DISTINCTIVE PARKING LLC,-73.97014567,40.76470283,"(40.764702825040494, -73.97014566672321)"
Garage,125 PERRY LLC,-74.00728164,40.73497261,"(40.734972610927024, -74.00728163998545)"
Garage,SP PLUS CORPORATION,-73.97698306,40.75387363,"(40.75387363379414, -73.97698305538817)"
Garage,WILLBE PARKING LLC,-73.98341664,40.73259195,"(40.73259194537532, -73.98341663930714)"
Garage,WEST 122ND STREET GARAGE LLC,-73.95930553,40.81105529,"(40.811055291331556, -73.95930552712605)"
Garage,SP PLUS CORPORATION,-73.96316023,40.7650137,"(40.76501370372331, -73.96316023019945)"
Garage,EAST 44TH STREET GARAGE LLC,-73.97298109,40.75183616,"(40.751836162585, -73.97298109172517)"
Garage,"HILARY GARDENS GARAGE CO., LLC",-73.99364974,40.73045755,"(40.73045754511662, -73.99364974329583)"
Garage,SP PLUS CORPORATION,-74.00557292,40.71140621,"(40.71140621475197, -74.00557292183626)"
Garage,RIBAR OWNERS LLC,-74.00180055,40.73441564,"(40.73441564208277, -74.00180054904705)"
Garage,RAINBOW PARKING CORP.,-73.95851236,40.76796272,"(40.76796272075102, -73.95851235821289)"
Garage,206 E. 59TH ST. GARAGE CORP.,-73.96615114,40.76136137,"(40.76136136885068, -73.96615114382787)"
Garage,"124 EAST 63RD STREET REALTY CO., LLC",-73.96690019,40.76494897,"(40.764948965105745, -73.96690019411568)"
Garage,880 FIFTH PARKING LLC,-73.96836676,40.77060629,"(40.770606287747974, -73.9683667645775)"
Garage,333 GARAGE CORP,-73.95887789,40.76649716,"(40.766497160060034, -73.95887788653538)"
Garage,"LAZ PARKING NEW YORK / NEW JERSEY, LLC",-73.98214987,40.73367319,"(40.733673189158175, -73.982149865834)"
Garage,"LAZ PARKING NEW YORK / NEW JERSEY, LLC",-73.96024411,40.76378035,"(40.76378034510823, -73.96024410840386)"
Garage,SP PLUS CORPORATION,-74.01567706,40.71452882,"(40.714528821024324, -74.01567705701206)"
Garage,45 GARAGE LLC,-73.99191419,40.76065242,"(40.760652424498915, -73.99191419121037)"
Garage,"ALFRED CAR PARK, LLC",-73.98605695,40.77140576,"(40.77140576087256, -73.98605694822305)"
Garage,111 EAST 82 PARTNERS LLC,-73.95845597,40.77733598,"(40.777335983610826, -73.95845596938044)"
Garage,SP PLUS CORPORATION,-74.00408777,40.72701023,"(40.727010234289224, -74.00408776628014)"
Garage,"COVE CLUB CAR PARK, LLC",-74.01765571,40.70803717,"(40.70803717159958, -74.0176557112128)"
Garage,"44 WEST 62ND GARAGE PARTNERS, LLC",-73.98262009,40.77075479,"(40.7707547905183, -73.982620094432)"
Garage,CHAMPION PARKING 36 LLC,-73.98059771,40.74811582,"(40.74811581939547, -73.98059771064828)"
Garage,231 EAST 94TH STREET PARKING LLC,-73.94946076,40.78355196,"(40.78355196075779, -73.9494607556907)"
Garage,80 EAST END GARAGE LLC,-73.94609654,40.77313416,"(40.77313416052005, -73.9460965359417)"
Garage,SP PLUS CORPORATION,-73.97038325,40.75810727,"(40.75810726823517, -73.97038324675964)"
Garage,MTP 57 LLC,-73.99176137,40.7704731,"(40.7704730986102, -73.99176136756428)"
Garage,CHAMPION 29 LLC,-73.98616352,40.74500408,"(40.7450040770433, -73.98616352258165)"
Garage,MP WEST 52 LLC,-73.9847914,40.76407165,"(40.7640716538889, -73.98479140116575)"
Garage,EAGLE ONE GARAGE LLC,-73.97336103,40.74942911,"(40.749429107469865, -73.9733610264295)"
Garage,MP WEST 29 LLC,-74.00269973,40.75199026,"(40.75199026086275, -74.00269973147523)"
Garage,MAY PARKING CORP.,-73.95805812,40.76694975,"(40.76694974686414, -73.95805811942994)"
Garage,PARK GATE PARKING INC.,-73.96723281,40.79327748,"(40.79327748070041, -73.9672328139575)"
Garage,60TH STORAGE CORP.,-73.96547584,40.76189639,"(40.761896393391126, -73.96547583862576)"
Garage,MP WEST 97 LLC,-73.96789703,40.7939117,"(40.79391170022211, -73.96789702509926)"
Garage,"LAZ PARKING NEW YORK / NEW JERSEY, LLC",-73.98503377,40.76182923,"(40.76182923096574, -73.98503376979151)"
Garage,SP PLUS CORPORATION,-74.00912706,40.71999983,"(40.71999983360606, -74.00912706166154)"
Garage,SP PLUS CORPORATION,-73.99212273,40.73709976,"(40.73709975538334, -73.99212273163589)"
Garage,SP PLUS CORPORATION,-73.95133866,40.78822705,"(40.78822705003492, -73.95133865857356)"
Garage,550 WEST 45TH ST. GARAGE LLC,-73.99580538,40.76227203,"(40.76227203033298, -73.99580538469833)"
Garage,"101 CAR PARK, LLC",-73.99322631,40.74309711,"(40.74309710770874, -73.9932263107281)"
Garage,CHIVIAN GARAGE CORP.,-73.99822827,40.73622169,"(40.736221690248684, -73.99822826944903)"
Garage,LM MUSTANG PARKING LLC,-73.94942271,40.77184564,"(40.77184564116841, -73.9494227051865)"
Garage,SP PLUS CORPORATION,-73.98891572,40.75332096,"(40.75332096131935, -73.98891572058507)"
Garage,CHAMPION PARKING 83RD ST CORP,-73.95277393,40.77576655,"(40.77576654999439, -73.95277393363378)"
Garage,"LIBERTY VIEW PARKING, LLC",-74.01664405,40.71553876,"(40.71553875732529, -74.01664404904123)"
Garage,CHAMPION PARKING MIDTOWN LLC,-73.97474732,40.74839739,"(40.7483973944109, -73.97474732269983)"
Garage,EAST 77TH REALTY LLC,-73.95118592,40.76997449,"(40.769974489179866, -73.95118592429507)"
Garage,SP PLUS CORPORATION,-73.9560347,40.78057936,"(40.78057936351833, -73.95603469857129)"
Garage,CHAMPION PARKING 57 LLC,-73.98363189,40.76702484,"(40.76702483684617, -73.98363189062222)"
Garage,113 EAST 84 PARTNERS LLC,-73.95749113,40.77858723,"(40.77858723164237, -73.95749112950841)"
Garage,EASTSIDE 65 PARKING LLC,-73.96284582,40.76562019,"(40.76562019069692, -73.96284582423895)"
Garage,SP PLUS CORPORATION,-73.96701327,40.79175409,"(40.79175409271742, -73.9670132669623)"
Garage,QUIK PARK EAST 102ND STREET GARAGE LLC,-73.94376624,40.78783385,"(40.787833852003956, -73.9437662377238)"
Garage,INNOVATIVE PARKING LLC,-73.97300771,40.74849307,"(40.74849306607262, -73.97300771114323)"
Garage,CHAMPION PARKING 75 LLC,-73.95494367,40.77073082,"(40.7707308233789, -73.95494367437269)"
Garage,BETH PARKING CORP.,-74.01648738,40.70926974,"(40.709269743589, -74.01648738471427)"
Garage,CHAMPION PARKING 81 LLC,-73.94941475,40.7728063,"(40.77280629637627, -73.94941475479274)"
Garage,PARK LANE HOTEL GARAGE LLC,-73.97479516,40.76505252,"(40.76505251825518, -73.97479515741158)"
Garage,MP WEST 97 LLC,-73.96785731,40.79389522,"(40.793895220773955, -73.96785730611923)"
Garage,SP PLUS CORPORATION,-73.97423891,40.79386389,"(40.793863886980645, -73.97423890722479)"
Garage,SP PLUS CORPORATION,-73.95929955,40.76175165,"(40.76175165030242, -73.95929955274936)"
Garage,PEAK TIME PARKING INC.,-73.96403091,40.76375963,"(40.76375963167554, -73.96403091090507)"
Garage,403 LAFAYETTE LLC,-73.99267217,40.72840167,"(40.72840166510179, -73.99267217416283)"
Garage,RAPID EAST 38TH STREET CORP.,-73.97917874,40.75006709,"(40.75006708753899, -73.97917874144797)"
Garage,"200 EAST 72ND STREET GARAGE PARTNERS, LLC",-73.96084392,40.76896262,"(40.7689626222786, -73.960843916038)"
Garage,EMPIRE PARKING CORP.,-73.97350155,40.7953843,"(40.79538429990896, -73.97350154849359)"
Garage,IMPERIAL HOUSE PARKING MANAGEMENT COMPANY,-73.96337542,40.76757462,"(40.767574616050034, -73.96337542031553)"
Garage,605 WEST 42ND STREET GARAGE LLC,-73.99861746,40.76096011,"(40.76096011122231, -73.99861746470174)"
Garage,NEW YORK PARKING 54TH ST. CORP.,-73.97374659,40.76013371,"(40.760133705031734, -73.9737465936872)"
Garage,CHAMPION PARKING 90 LLC,-73.95633632,40.78314855,"(40.78314855020369, -73.95633632244923)"
Garage,CHAMPION PARKING 77TH ST. CORP.,-73.96271069,40.77485345,"(40.77485345167708, -73.9627106944501)"
Garage,MP WEST 97 LLC,-73.96863766,40.79333277,"(40.79333276612264, -73.96863766346979)"
Garage,"LAZ PARKING NEW YORK / NEW JERSEY, LLC",-74.00431379,40.70726991,"(40.707269910970616, -74.00431378701295)"
Garage,SP PLUS CORPORATION,-73.98657457,40.74681017,"(40.74681017074108, -73.98657457188555)"
Garage,200 E. 70 GARAGE CORP.,-73.96188072,40.76776626,"(40.76776626308041, -73.96188072443039)"
Garage,QUIK PARK MORTON LLC,-74.00913942,40.7311655,"(40.73116550433741, -74.00913941542026)"
Garage,PARKWIZ LLC,-73.96300197,40.75747659,"(40.75747658751888, -73.96300196835493)"
Garage,MP MAD 106 LLC,-73.94987965,40.79311205,"(40.79311204671085, -73.94987965479113)"
Garage,KIPS BAY 27 PARKING LLC,-73.97977349,40.74068289,"(40.740682894759544, -73.97977349336512)"
Garage,"PROPARK AMERICA NEW YORK, LLC",-73.99508135,40.74140644,"(40.741406435433255, -73.9950813509898)"
Garage,250 W. 50TH PARKING LLC,-73.98503377,40.76182923,"(40.76182923096574, -73.98503376979151)"
Garage,1350 SIXTH PARKING LLC,-73.97834091,40.76273119,"(40.76273118749094, -73.97834090743741)"
Garage,SUTTON 53 PARKING LLC,-77.51958437,40.11238534,"(40.11238533659802, -77.51958437167269)"
Garage,390 MADISON PARKING CORP.,-73.97715206,40.75573735,"(40.7557373498855, -73.97715205648149)"
Garage,FLATIRON 20 PARKING LLC,-73.99188421,40.74007779,"(40.740077794883206, -73.99188421053452)"
Garage,RAPID 75 CORP,-73.95908307,40.77332615,"(40.773326146160095, -73.95908307414692)"
Garage,VIP CAPITAL PARKING CORPORATION,-73.99475423,40.72524256,"(40.725242563945116, -73.994754232551)"
Garage,MANHATTAN PARKING WEST 20 LLC,-74.00649251,40.74621241,"(40.74621241490327, -74.00649250763419)"
Garage,SOUTH WILLIAM PARKING LLC,-74.0107696,40.70451649,"(40.70451648945149, -74.01076959533349)"
Garage,MANHATTAN PARKING E 71 ST  CORP,-73.95833189,40.76790502,"(40.76790501606806, -73.95833188768148)"
Garage,KAYLEE OPERATING LLC,-73.98401231,40.746335,"(40.74633500199023, -73.98401230579405)"
Garage,PARKLEX GARAGE INC.,-73.97339732,40.75796528,"(40.757965276981416, -73.9733973180647)"
Garage,162 PARKING OPS LLC,-73.94084492,40.83644142,"(40.83644141872332, -73.94084491521889)"
Garage,AP ETON MANAGEMENT LLC,-73.95295197,40.77418291,"(40.77418290900943, -73.95295196974553)"
Garage,EAST 54TH OPERATING LLC,-73.96789273,40.75789526,"(40.757895255677305, -73.9678927260891)"
Garage,SP PLUS CORPORATION,-73.99687855,40.73988591,"(40.73988590592935, -73.99687855150695)"
Garage,KAPPA PARKING INC,-73.98687632,40.73565005,"(40.73565004743129, -73.98687631618029)"
Garage,DL GARAGE HOLDINGS LLC,-73.96533827,40.76265665,"(40.76265664589339, -73.96533827044333)"
Garage,AP RIVERSIDE MANAGEMENT LLC.,-73.97613094,40.79502257,"(40.795022570154146, -73.97613093717986)"
Garage,"355 EAST 76TH GARAGE, LLC.",-73.95520353,40.77085993,"(40.77085992746439, -73.95520352789282)"
Garage,UNION SQUARE CAR PARK LLC,-73.98871325,40.73407201,"(40.734072008817265, -73.98871324972123)"
Garage,355 E. 72ND GARAGE CORP.,-73.95707172,40.76826686,"(40.76826685921193, -73.95707171922261)"
Garage,S.D. BARRON LLC,-73.99028321,40.73167049,"(40.73167049196066, -73.9902832087431)"
Garage,MEMORIAL SLOAN KETTERING CANCER CENTER,-73.95792303,40.76363954,"(40.7636395389055, -73.957923027813)"
Garage,WEST 88TH GARAGE LLC,-73.97408158,40.7898044,"(40.78980439516155, -73.9740815800513)"
Garage,"Y & H ENTERPRISES, INC.",-73.95428243,40.81887861,"(40.81887860763087, -73.95428243216963)"
Garage,"IMPERIAL PARKING (U.S.), LLC",-73.95985892,40.76200436,"(40.762004362938605, -73.95985891883001)"
Garage,GREENLUX PARKING LLC,-74.01507142,40.71618948,"(40.71618948222723, -74.01507141650073)"
Garage,ABLE PARKING LLC,-73.94760009,40.80777337,"(40.80777336580858, -73.94760009499119)"
Garage,LUDLOW OPERATING LLC,-73.98830405,40.72185231,"(40.7218523134901, -73.98830404884531)"
Garage,AP IMPALA MANAGAEMENT LLC,-73.95371654,40.77021433,"(40.77021432589259, -73.95371653716734)"
Garage,425 EAST 79 CAR PARK LLC,-73.95211583,40.77211303,"(40.77211303155484, -73.95211582906313)"
Garage,CORINTHIAN GARAGE LLC,-73.97274136,40.74674185,"(40.746741853644096, -73.97274135596683)"
Garage,"KRD REALTY CO., INC.",-73.98943086,40.75959001,"(40.759590007634166, -73.98943086137035)"
Garage,REALPRO PARKING LLC,-73.97235854,40.74738678,"(40.74738677841604, -73.97235853623522)"
Garage,"THE SOCIETY OF THE NEW YORK HOSPITAL FUND, INC.",-77.51958437,40.11238534,"(40.11238533659802, -77.51958437167269)"
Garage,2211 3RD AVE PARKING LLC,-73.93792566,40.80079696,"(40.800796959195544, -73.93792565779566)"
Garage,CHURCH STREET PARKING LLC,-74.0092019,40.71334104,"(40.713341039025025, -74.00920190051436)"
Garage,"BARROW STREET GARAGE, LLC",-74.00220102,40.73291425,"(40.73291425468548, -74.0022010223876)"
Garage,LTG PARKING CORP.,-73.98600869,40.7777214,"(40.777721396672796, -73.9860086872017)"
Garage,BEAVER STREET PARKING LLC,-74.01062534,40.70456865,"(40.70456865338853, -74.01062533579265)"
Garage,MANAGEMENT SYSTEMS LLC,-73.97871861,40.74428931,"(40.744289307079065, -73.97871861439347)"
Garage,WORTHY PARKING LLC,-73.98927066,40.76815633,"(40.768156333087376, -73.9892706556262)"
Garage,TGL GARAGE LLC,-73.99904737,40.73654833,"(40.736548325540255, -73.9990473744229)"
Garage,EAST PLAZA GARAGE LLC,-73.97610365,40.74024578,"(40.74024577628188, -73.9761036487651)"
Garage,SELECT PARKING LLC,-73.96517038,40.75926409,"(40.75926409225619, -73.9651703818044)"
Garage,JDS PARKING LLC,-73.99577309,40.7592336,"(40.75923359820904, -73.99577308911016)"
Garage,815 TENTH PARKING LLC,-73.98990617,40.76728631,"(40.76728630774992, -73.9899061726225)"
Garage,OMEGA PARKING SYSTEMS LLC,-73.98233238,40.73934937,"(40.73934936644874, -73.98233238282651)"
Garage,225 EAST 63RD PARKING CORP,-73.96409587,40.7637871,"(40.76378709936343, -73.9640958743838)"
Garage,QUIK PARK PCVST GARAGE LLC,-73.97630096,40.73336747,"(40.73336746628165, -73.9763009614079)"
Garage,QUIK PARK REAL LLC,-73.98050024,40.74821461,"(40.74821461387969, -73.98050023719544)"
Garage,GLOBAL PARKING LLC,-73.98710362,40.75442691,"(40.75442690540448, -73.98710361839221)"
Garage,NORTH PLAZA GARAGE LLC,-73.9767457,40.74105286,"(40.741052864631726, -73.97674570331989)"
Garage,AP SAINT NICHOLAS MANAGEMENT LLC,-73.94528297,40.82295608,"(40.82295608415482, -73.94528297103189)"
Garage,CHAMPION 58 LLC,-73.97508422,40.7643362,"(40.76433620349246, -73.97508422335936)"
Garage,HANOVER PARKING LLC,-74.00940626,40.70446995,"(40.704469947934896, -74.00940625753638)"
Garage,"CLARITY 47 PARKING, LLC",-73.98309974,40.75857644,"(40.75857644223562, -73.98309974239915)"
Garage,333 RECTOR GARAGE LLC,-74.01725211,40.70944804,"(40.70944804111834, -74.01725210502414)"
Garage,"LAZ PARKING NEW YORK, NEW JERSEY LLC",-73.95429749,40.76538381,"(40.765383813793406, -73.95429749291007)"
Garage,UNI. FACILITY CORP.,-77.51958437,40.11238534,"(40.11238533659802, -77.51958437167269)"
Garage,CLIFF PARKING LLC,-74.00616417,40.70800542,"(40.708005423405226, -74.00616416668282)"
Garage,185TH OPERATING LLC,-73.93471486,40.85215431,"(40.852154307392624, -73.93471486369293)"
Garage,RIVER YORK STRATFORD LLC,-73.95297444,40.7679304,"(40.767930401380234, -73.9529744373984)"
Garage,QUIK PARK PCVST GARAGE LLC,-73.97905155,40.72989588,"(40.729895884616575, -73.97905154546305)"
Garage,QUIK PARK LIBBY 2 LLC,-73.9691076,40.75347655,"(40.75347654746056, -73.96910759661048)"
Garage,310 LEX PARKING MGMT LLC,-73.97799897,40.74878507,"(40.74878507092396, -73.97799896868071)"
Garage,PLAZA 48 PARKING LLC,-77.51958437,40.11238534,"(40.11238533659802, -77.51958437167269)"
Garage,TENTH AVE NY CORP,-73.91840741,40.865184,"(40.86518400139399, -73.91840741315542)"
Garage,EAST 71ST STREET LLC,-73.95639366,40.76727301,"(40.76727300837825, -73.95639366190568)"
Garage,QUIK PARK BLEECKER STREET GARAGE LLC,-74.00460058,40.73410541,"(40.734105407084556, -74.0046005798546)"
Garage,QUIK PARK SOUTHERN LLC,-74.01260867,40.70270201,"(40.70270201297232, -74.01260866729933)"
Garage,QUIK PARK PCVST GARAGE LLC,-73.97433129,40.73224444,"(40.73224443950798, -73.97433128509309)"
Garage,LITTLE LIBERTY 1 LLC,-74.01507503,40.71621967,"(40.716219674120126, -74.0150750306575)"
Garage,SP PLUS CORPORATION,-73.96999558,40.76129931,"(40.761299305165565, -73.96999558186654)"
Garage,ONE PARKING 1411 LLC,-73.98702422,40.75437475,"(40.754374746314866, -73.98702422178019)"
Garage,ENTERPRISE PARKING SYSTEMS 11 LLC,-73.98724809,40.73506271,"(40.73506271197443, -73.98724809188964)"
Garage,GRAMERCY 24 PARKING LLC,-73.98083882,40.73799048,"(40.7379904753201, -73.98083882067674)"
Garage,QUIK PARK PCVST GARAGE LLC,-73.9747038,40.7299554,"(40.72995539619824, -73.97470379838718)"
Garage,111 EIGHTH AVENUE PARKING LLC,-74.00184402,40.74070387,"(40.74070386940381, -74.00184402284624)"
Garage,TWOTWOTWO 58 GARAGE LLC,-73.96673664,40.75992604,"(40.75992603846913, -73.96673664415013)"
Garage,39TH AND EIGHTH PARKING LLC,-73.99181374,40.75558836,"(40.755588363866096, -73.99181374099726)"
Garage,"95 WORTH, LLC",-74.0044767,40.71633585,"(40.71633585401581, -74.00447670389373)"
Garage,GARSCH GARAGE CORP.,-73.974324,40.78861324,"(40.788613235857305, -73.97432399765763)"
Garage,QUIK PARK PCVST GARAGE LLC,-73.97523807,40.72921992,"(40.72921991781215, -73.97523806654134)"
Garage,STATE-PEARL GARAGE INC.,-74.01443372,40.70322056,"(40.7032205592264, -74.01443371827393)"
Garage,QUIK PARK 390 GARAGE LLC,-73.97236076,40.75941975,"(40.75941974745842, -73.97236076203247)"
Garage,"LAZ PARKING NEW YORK, NEW JERSEY LLC",-73.95542074,40.76457455,"(40.76457455499062, -73.95542074239579)"
Garage,BAMFORD REALTY LLC,-73.96487853,40.75826492,"(40.758264916679536, -73.96487852610655)"
Garage,UPTOWN PARKING LLC,-73.96441347,40.76392169,"(40.7639216902801, -73.96441347422149)"
Garage,GREENWICH STREET PARKING LLC,-74.00881782,40.72757813,"(40.72757813379218, -74.00881781636369)"
Garage,1114 SIXTH PARKING LLC,-73.98373221,40.75535146,"(40.755351457953076, -73.9837322141691)"
Garage,188 EAST 64TH STREET GARAGE LLC,-73.96478479,40.76487972,"(40.764879719384226, -73.96478478877621)"
Garage,"LAZ PARKING NEW YORK / NEW JERSEY, LLC",-73.98990565,40.74690109,"(40.74690108756266, -73.98990565225326)"
Garage,IH ASSOCIATES LLC,-73.97068937,40.79248244,"(40.79248243978107, -73.97068937453938)"
Garage,QUIK PARK W. 14TH STREET LLC,-74.00055933,40.7389143,"(40.73891430473274, -74.00055932654452)"
Garage,SEAPORT PARKING LLC,-74.00392794,40.70869446,"(40.70869445703706, -74.00392793850338)"
Garage,67TH ST. & 2ND AVE. GARAGE INC.,-73.96095725,40.76653631,"(40.766536309845904, -73.9609572542412)"
Garage,92ND REALTY LLC,-73.94514487,40.78009711,"(40.78009711027421, -73.94514487208262)"
Garage,ADVANCE PARKING LLC,-73.98785024,40.75730622,"(40.75730622447783, -73.98785023876104)"
Garage,PARK AVENUE 39 PARKING LLC,-73.97886461,40.75050345,"(40.75050344520206, -73.97886460586147)"
Garage,"LAZ PARKING NEW YORK / NEW JERSEY, LLC",-74.01407384,40.70692055,"(40.70692054642896, -74.01407383676643)"
Garage,160 EAST 84TH STREET ASSOCIATES LLC,-73.95587761,40.77788946,"(40.7778894620423, -73.95587760505252)"
Garage,PATRIOT PARKING LLC,-74.01067791,40.71756784,"(40.7175678432235, -74.01067791175733)"
Garage,SP PLUS CORPORATION,-73.99396601,40.74424994,"(40.744249943905174, -73.99396600722591)"
Garage,WORTHY PARKING LLC,-73.98927066,40.76815633,"(40.768156333087376, -73.9892706556262)"
Garage,QUIK PARK MIA GARAGE LLC,-73.99649371,40.7155701,"(40.715570099451426, -73.99649370975672)"
Garage,LM 29 PARK LLC,-73.99373467,40.74821335,"(40.7482133493464, -73.99373466827033)"
Garage,LTG PARKING CORP.,-73.98668407,40.77676082,"(40.776760818861504, -73.98668407297048)"
Garage,PREMIER PARKING LLC,-73.96529495,40.76265663,"(40.76265663285229, -73.96529495231053)"
Garage,24 LEONARD PARKING LLC,-74.00780654,40.71859736,"(40.71859735866955, -74.0078065398467)"
Garage,PACE PARKING LLC,-73.98659891,40.75141037,"(40.75141037132598, -73.98659890943122)"
Garage,QP EAST 36TH STREET LLC,-77.51958437,40.11238534,"(40.11238533659802, -77.51958437167269)"
Garage,GREENLUX PARKING LLC,-74.01481537,40.71652438,"(40.716524376242766, -74.01481537064902)"
Garage,SP PLUS CORPORATION,-73.96428439,40.75555567,"(40.75555567053095, -73.96428439365002)"
Garage,357 EAST 57TH STREET PARKING CORP,-73.96369437,40.75864332,"(40.75864332432004, -73.96369436876499)"
Garage,BLEECKER PARKING CORP.,-73.94357018,40.81037895,"(40.810378951035936, -73.94357018002275)"
Garage,DELTA PARK INC,-73.95489691,40.77581681,"(40.77581680580157, -73.95489690644007)"
Garage,ATRIUM PARK LLC,-73.98859475,40.75182779,"(40.75182778778865, -73.98859474508389)"
Garage,EXCELLENT PARKING LLC,-77.51958437,40.11238534,"(40.11238533659802, -77.51958437167269)"
Garage,AUDUBON PARKING OPS LLC,-73.93315062,40.84764386,"(40.84764386129576, -73.93315061582638)"
Garage,222 EAST 69TH GARAGE CORP.,-73.9608485,40.76731029,"(40.767310289949684, -73.96084849759298)"
Garage,165 WEST 66TH STREET PARKING LLC,-73.98355786,40.77445209,"(40.77445209106563, -73.98355785535958)"
Garage,LTG PARKING CORP.,-73.98593274,40.77828955,"(40.77828954785315, -73.98593274328807)"
Garage,WELCOME PARKING LIMITED LIABILITY COMPANY,-74.00712033,40.74496352,"(40.74496351681676, -74.00712033209257)"
Garage,LTG PARKING CORP.,-73.98646737,40.77709291,"(40.777092906769276, -73.98646736892418)"
Garage,1330 SIXTH PARKING LLC,-77.51958437,40.11238534,"(40.11238533659802, -77.51958437167269)"
Garage,"KINNEY PARKING SYSTEM, INC.",-77.51958437,40.11238534,"(40.11238533659802, -77.51958437167269)"
Garage,SHERMAN PARKING INC.,-73.92085107,40.86549036,"(40.86549036494962, -73.9208510667768)"
Garage,SP PLUS CORPORATION,-73.9791993,40.76515221,"(40.7651522082792, -73.97919929536859)"
Garage,420 EAST 53RD PARKING LLC,-73.96413645,40.75547328,"(40.75547328219477, -73.96413645014091)"
Garage,CROWNE GARAGE LLC,-73.98516405,40.76037728,"(40.76037727861313, -73.98516404600167)"
Garage,"90 ST. OPERATING, LLC",-73.94697986,40.77920593,"(40.77920592991191, -73.94697986344603)"
Garage,"LEXFORD PROPERTIES, L.P.",-73.95125258,40.7726177,"(40.772617701567825, -73.95125258412499)"
Garage,RECTOR WEST PARKING LLC,-74.01619872,40.70883062,"(40.708830622466756, -74.01619872171503)"
Garage,2 LINCOLN PARKING LLC,-73.9821577,40.77180321,"(40.77180321020451, -73.98215769722664)"
Garage,VALOR PARKING LLC,-73.97216158,40.75232728,"(40.75232727715523, -73.97216158480887)"
Garage,"LAZ PARKING NEW YORK, NEW JERSEY LLC",-73.95525136,40.76414905,"(40.76414905426977, -73.95525136067157)"
Garage,CAROUSEL PARKING CORP,-73.98035353,40.78062999,"(40.78062999132912, -73.9803535332688)"
Garage,BROADWAY & 64TH PARKING LLC,-73.98215055,40.77151776,"(40.771517756240904, -73.98215055305542)"
Garage,METROPOLITAN STORAGE CORP.,-73.94344365,40.78498466,"(40.78498466092544, -73.94344364905606)"
Garage,CIRCLE PARKING LLC,-73.9824851,40.7623888,"(40.76238879923077, -73.98248510391365)"
Garage,BARCLAY STREET REALTY LLC,-74.00856328,40.71219927,"(40.71219926740093, -74.0085632840522)"
Garage,QUIK PARK LITTLE WEST LLC,-74.0165193,40.7070602,"(40.70706020441675, -74.01651929972803)"
Garage,CHARLES GARAGE MGMT LLC.,-74.00798156,40.73416286,"(40.73416286221032, -74.00798156190001)"
Garage,136 EAST 55TH STREET GARAGE LLC,-73.96974734,40.75947399,"(40.75947398567801, -73.96974733671233)"
Garage,"IMPERIAL PARKING (U.S.), LLC",-73.96227868,40.766276,"(40.76627599963542, -73.96227868192075)"
Garage,GARDEN LOTS LLC,-73.99007146,40.74828994,"(40.7482899447875, -73.99007145885507)"
Garage,29 DOWNING LLC,-74.00336631,40.72944486,"(40.72944485626552, -74.0033663065131)"
Garage,QUIK PARK PCVST GARAGE LLC,-73.97903205,40.73453452,"(40.73453451639181, -73.97903204553552)"
Garage,PARK NORTH PARKING CORP,-73.93887062,40.79834093,"(40.79834093280115, -73.93887062276222)"
Garage,"CENTRAL PARKING SYSTEM OF NEW YORK,INC.",-73.98992187,40.75897797,"(40.75897797372213, -73.98992187025215)"
Garage,ASTOR PARKING LLC,-73.98587576,40.75753656,"(40.75753655787094, -73.98587576346408)"
Garage,"LAZ PARKING NEW YORK, NEW JERSEY LLC",-73.95574416,40.76679243,"(40.76679243101591, -73.9557441640875)"
Garage,EAST 85TH REALTY LLC,-73.94727198,40.77508896,"(40.77508895817988, -73.94727198290032)"
Garage,PATRIOT PARKING LLC,-74.01042195,40.71863009,"(40.718630088736155, -74.01042195227166)"
Garage,52 - BROADWAY GARAGE CORP.,-73.98307336,40.76296254,"(40.76296253838058, -73.98307336043467)"
Garage,11 EAST 86TH STREET CORPORATION,-73.95984007,40.78129438,"(40.781294383704385, -73.95984006817093)"
Garage,"ABM PARKING SERVICES, INC",-73.97412623,40.73994892,"(40.739948915828634, -73.97412623447238)"
Garage,56TH REALTY LLC,-73.9654343,40.75847643,"(40.75847643011189, -73.96543429581682)"
Garage,400 SUTTON GARAGE INC,-73.96360191,40.75609068,"(40.756090682302094, -73.96360191333551)"
Garage,HUDSON VIEW GARAGE LLC,-73.99150211,40.76509339,"(40.76509338829056, -73.99150211470403)"
Garage,ROYAL CHARTER PROPERTIES-EAST INC.,-73.95429749,40.76538381,"(40.765383813793406, -73.95429749291007)"
Garage,"4 EAST 76TH ST. GARAGE, INC.",-73.96482643,40.77489803,"(40.77489803273876, -73.96482642751208)"
Garage,162 PARKING MGMT LLC.,-73.94084492,40.83644142,"(40.83644141872332, -73.94084491521889)"
Garage,"CENTRAL PARKING SYSTEM OF NEW YORK,INC.",-73.97495006,40.78511658,"(40.78511658416388, -73.97495005989389)"
Garage,"ALLIANCE DAG PARKING, LLC",-73.97116129,40.75352374,"(40.75352374061433, -73.97116129485991)"
Garage,"CENTRAL PARKING SYSTEM OF NEW YORK,INC.",-74.01667862,40.70952223,"(40.70952223423958, -74.01667861643097)"
Garage,"CENTRAL PARKING SYSTEM OF NEW YORK, INC.",-73.9625461,40.7786329,"(40.77863290127972, -73.96254609596876)"
Garage,455 CPW PARKING CORP,-73.96011536,40.79793853,"(40.79793853232898, -73.96011535593696)"
Garage,337 PARKING LLC,-73.9610927,40.76333599,"(40.76333598652107, -73.96109269588081)"
Garage,"5060 AUTO SERVICE, INC.",-73.91511891,40.86965549,"(40.869655485211084, -73.91511891194003)"
Garage,304060 PARKING LLC,-73.99267905,40.73147579,"(40.73147579161169, -73.99267905241834)"
Garage,QUIK PARK BPC LLC,-74.0165193,40.7070602,"(40.70706020441675, -74.01651929972803)"
Garage,"IMPERIAL PARKING (U.S.), INC",-73.94637522,40.80815981,"(40.80815980864494, -73.94637521656907)"
Garage,NYULMC H GARAGE CORP.,-73.97394453,40.74320689,"(40.74320689440445, -73.97394452967214)"
Garage,"STRAND PARKING MGMT, LLC",-73.99509439,40.7603397,"(40.76033970305452, -73.99509439172174)"
Garage,DYNAMIC PARKING LLC,-73.97381931,40.74962134,"(40.74962134490664, -73.9738193101469)"
Garage,"CENTRAL PARKING SYSTEM OF NEW YORK,INC.",-73.99457248,40.7419636,"(40.7419635970152, -73.9945724798417)"
Garage,"CENTRAL PARKING SYSTEM OF NEW YORK,INC.",-73.99081169,40.74561937,"(40.74561936554576, -73.99081168576616)"
Garage,"CENTRAL PARKING SYSTEM OF NEW YORK,INC.",-77.51958437,40.11238534,"(40.11238533659802, -77.51958437167269)"
Garage,THE NEW YORK AND PRESBYTERIAN HOSPITAL,-73.95525136,40.76414905,"(40.76414905426977, -73.95525136067157)"
Garage,"CENTRAL PARKING SYSTEM OF NEW YORK,INC.",-73.97328683,40.754441,"(40.75444099838758, -73.97328683414305)"
Garage,WEST 39TH STREET LLC,-73.99221798,40.75575857,"(40.7557585661015, -73.99221798081803)"
Garage,APEX PARKING LLC,-73.9869565,40.76843331,"(40.76843331312154, -73.98695649983485)"
Garage,"CENTRAL PARKING SYSTEM OF NEW YORK, INC",-73.94351331,40.83908317,"(40.83908316793566, -73.94351330662326)"
Garage,SP PLUS CORPORATION,-74.00431379,40.70726991,"(40.707269910970616, -74.00431378701295)"
Garage,"KINNEY PARKING SYSTEM, LLC",-74.00912706,40.71999983,"(40.71999983360606, -74.00912706166154)"
Garage,"CENTRAL PARKING SYSTEM OF NEW YORK,INC.",-73.96213711,40.76130522,"(40.761305224664106, -73.9621371061817)"
Garage,"CARPARK 39TH STREET, LLC",-73.97917874,40.75006709,"(40.75006708753899, -73.97917874144797)"
Garage,SP PLUS CORPORATION,-73.98920934,40.74549846,"(40.74549845759647, -73.9892093441795)"
Garage,QP W. 116TH STREET LLC,-73.94834191,40.80144985,"(40.80144985326281, -73.94834191044643)"
Garage,TODAY PARKING CORP.,-73.92917568,40.86710691,"(40.86710691210205, -73.9291756759866)"
Garage,"KINNEY PARKING SYSTEM, LLC",-73.98036424,40.75658332,"(40.75658332376546, -73.98036423524069)"
Garage,SP PLUS CORPORATION,-73.98511278,40.76363528,"(40.7636352818585, -73.98511278171152)"
Garage,"CENTRAL PARKING SYSTEM OF NEW YORK,INC.",-77.51958437,40.11238534,"(40.11238533659802, -77.51958437167269)"
Garage,ALERT PARKING LLC,-73.95975398,40.78035565,"(40.780355654151144, -73.95975397503081)"
Garage,SUPERB PARKING LLC,-73.97283255,40.74435943,"(40.74435943257654, -73.97283255206597)"
Garage,"IMPERIAL PARKING (U.S.), LLC",-73.95154558,40.77185204,"(40.77185204293392, -73.95154558242237)"
Garage,WEST SIDE PARKING CORP.,-74.01041184,40.7231562,"(40.72315619692593, -74.01041183695614)"
Garage,SP PLUS CORPORATION,-73.98206689,40.73363749,"(40.73363749446277, -73.98206688512487)"
Garage,"KINNEY PARKING SYSTEM, LLC",-77.51958437,40.11238534,"(40.11238533659802, -77.51958437167269)"
Garage,575 FIRST AVE. CORP.,-73.97681707,40.74337494,"(40.74337493821035, -73.9768170688295)"
Garage,"PROPARK AMERICA NEW YORK, LLC",-73.9614891,40.80198473,"(40.801984727411416, -73.96148909506633)"
Garage,150 EAST 61 GARAGE CORP.,-73.96691183,40.76331859,"(40.76331859156702, -73.96691183399781)"
Garage,STANDARD PARKING CORPORATION,-73.97225418,40.78131176,"(40.781311764946494, -73.97225418170498)"
Garage,SP PLUS CORPORATION,-73.99604775,40.75375784,"(40.75375784147327, -73.99604774811701)"
Garage,SOUTH PLAZA GARAGE LLC,-77.51958437,40.11238534,"(40.11238533659802, -77.51958437167269)"
Garage,"CENTRAL PARKING SYSTEM OF NEW YORK,INC.",-77.51958437,40.11238534,"(40.11238533659802, -77.51958437167269)"
Garage,"RIVER HOUSE CAR PARK, LLC",-73.95778008,40.76136135,"(40.76136134990866, -73.95778007602088)"
Garage,SP PLUS CORPORATION,-73.96578621,40.7620447,"(40.762044702110565, -73.96578620556566)"
Garage,V.M.C. PARKING INC.,-73.95506791,40.8059897,"(40.80598970271931, -73.95506790697557)"
Garage,SP PLUS CORPORATION,-73.99527197,40.75045863,"(40.750458626528385, -73.99527196935816)"
Garage,AP 131ST MANAGEMENT LLC,-73.94952055,40.81422432,"(40.814224320719624, -73.94952055422276)"
Garage,SP PLUS CORPORATION,-73.9791654,40.7581037,"(40.75810370182257, -73.97916540049906)"
Garage,WELCOME PARKING LIMITED LIABILITY COMPANY,-73.98512548,40.75525832,"(40.75525832493498, -73.98512548222429)"
Garage,LIBERTY STREET REALTY LLC,-74.00815512,40.70764025,"(40.707640246019025, -74.00815512260252)"
Garage,45 EAST LLC,-73.96991703,40.75139075,"(40.75139075406613, -73.96991703238423)"
Garage,WEST 36TH OPERATING LLC,-73.99336238,40.75382359,"(40.75382359194443, -73.99336237589831)"
Garage,COOPER & 9TH PARKING LLC,-73.9907054,40.73141252,"(40.73141251985872, -73.99070540015911)"
Garage,SHARP PARKING LLC,-73.9712056,40.75122091,"(40.75122090905669, -73.97120560247974)"
Garage,METROPOLITAN PARKING GROUP LLC,-73.93809186,40.84734745,"(40.84734744600274, -73.9380918554162)"
Garage,REX PARKING CORP.,-73.99196755,40.76720413,"(40.76720412768071, -73.99196754714451)"
Garage,QUIK PARK EAST 73RD ST LLC,-73.95181993,40.76690888,"(40.76690888069089, -73.95181993445908)"
Garage,222 WEST 14TH STREET PARKING CORP.,-74.00055933,40.7389143,"(40.73891430473274, -74.00055932654452)"
Garage,LEMAR PARKING CORP.,-73.94097207,40.83568943,"(40.835689432967655, -73.94097206712378)"
Garage,INDOOR PARKING CORP.,-73.92617845,40.86381414,"(40.86381414107794, -73.92617845317197)"
Garage,CHAMPION PARKING 39 LLC,-73.98581896,40.75306536,"(40.75306536028459, -73.9858189622951)"
Garage,"LAUREATE GARAGE, LLC",-73.98117659,40.78138493,"(40.781384930869976, -73.98117658662161)"
Garage,CONVENIENT PARKING LLC,-73.97142923,40.79362992,"(40.793629922734425, -73.97142923182369)"
Garage,BRG CHARLES LLC,-74.00798156,40.73416286,"(40.73416286221032, -74.00798156190001)"
Garage,RIBAR PARKING LLC,-74.00180055,40.73441564,"(40.73441564208277, -74.00180054904705)"
Garage,QUIK PARK CHESAPEAKE LLC,-73.95166344,40.7736197,"(40.773619704306135, -73.95166344074802)"
Garage,HRF OPERATING CORP.,-73.96335333,40.80115917,"(40.80115917245978, -73.96335333011031)"
Garage,"KINNEY PARKING SYSTEM, LLC",-73.97551014,40.76449275,"(40.76449274511101, -73.97551013823026)"
Garage,ACCESS 37 PARKING LLC,-73.99514529,40.75537721,"(40.7553772070415, -73.99514528948617)"
Garage,TOWER 25 PARKING LLC,-73.98008812,40.73842127,"(40.73842127408734, -73.98008812218568)"
Garage,PLATT PARKING LLC,-74.00646355,40.70817284,"(40.70817283755487, -74.006463554382)"
Garage,"DIAMOND 1 PARKING GARAGE, INC.",-73.92917568,40.86710691,"(40.86710691210205, -73.9291756759866)"
Garage,QUIK PARK NASSAU LLC,-74.00620416,40.71140069,"(40.71140069293805, -74.00620415842448)"
Garage,99 JANE STREET PARKING LLC,-74.00846197,40.73815095,"(40.738150954112605, -74.00846197240061)"
Garage,56 LEONARD GARAGE LLC,-74.0062733,40.71789754,"(40.717897538681804, -74.00627330417922)"
Garage,"PARK 139TH, LLC",-73.93767009,40.81528896,"(40.81528896455536, -73.93767008976492)"
Garage,"CENTRAL PARKING SYSTEM OF NEW YORK, INC",-73.9560347,40.78057936,"(40.78057936351833, -73.95603469857129)"
Garage,"CENTRAL PARKING SYSTEM OF NEW YORK,INC.",-73.99081169,40.74561937,"(40.74561936554576, -73.99081168576616)"
Garage,PIERCE PARKING LLC,-73.98778212,40.77446908,"(40.77446908483516, -73.98778211868341)"
Garage,IRVING 18TH PARKING LLC,-73.98558455,40.73550168,"(40.735501676296245, -73.98558454766156)"
Garage,CORNELL UNIVERSITY,-73.95485707,40.76534561,"(40.765345608022415, -73.95485706771842)"
Garage,73RD STREET PARKING CORP.,-73.9603884,40.77002743,"(40.77002742574141, -73.9603883991646)"
Garage,QUIK PARK WEST 41ST STREET LLC,-73.99921308,40.7603398,"(40.76033980481337, -73.99921308123197)"
Garage,QUIK PARK TRUFFLES LLC,-73.99348693,40.73503579,"(40.735035786290744, -73.99348693130221)"
Garage,BRICIN PARKING CORP.,-73.96948387,40.75938334,"(40.75938333963376, -73.9694838721553)"
Garage,"PROPARK AMERICA NEW YORK, LLC",-73.94637522,40.80815981,"(40.80815980864494, -73.94637521656907)"
Garage,RAPID EAST 38TH STREET CORP.,-73.98039505,40.7499877,"(40.74998770329827, -73.98039505259884)"
Garage,CONTINENTAL TOWERS PARKING LLC,-73.95469289,40.77319276,"(40.7731927560976, -73.95469288994452)"
Garage,"222 RIVERSIDE MANAGEMENT, LLC",-73.97612732,40.79505002,"(40.79505001669614, -73.97612731573767)"
Garage,375 HUD PARKING LLC,-74.00715104,40.72843461,"(40.7284346132886, -74.00715103790715)"
Garage,ONE PARKING 40TH STREET INC,-73.97471123,40.74840288,"(40.74840287598902, -73.97471122989725)"
Garage,"CENTRAL PARKING SYSTEM OF NEW YORK,INC.",-73.98062897,40.76472153,"(40.764721533070926, -73.9806289727248)"
Garage,ENTERPRISE 36TH STREET PARKING LLC,-73.99635091,40.75429582,"(40.75429582170935, -73.99635090509237)"
Garage,115 WEST 25TH STREET PARKING CORP.,-73.9925441,40.74446121,"(40.7444612063763, -73.99254409772298)"
Garage,BENEFICIAL 21 PARKING LLC,-73.98054349,40.73606361,"(40.736063609346914, -73.98054348565344)"
Garage,"CENTRAL PARKING SYSTEM OF NEW YORK, INC",-73.97924736,40.7499381,"(40.74993809677702, -73.97924735572035)"
Garage,HEIGHTS MANAGEMENT 181 LLC,-73.93131019,40.84829053,"(40.84829053067262, -73.9313101890101)"
Garage,"CENTRAL PARKING SYSTEM OF NEW YORK,INC.",-73.97758231,40.76431476,"(40.764314758720936, -73.97758230618342)"
Garage,ROYAL 89 PARKING LLC,-73.95224332,40.7806053,"(40.780605302028384, -73.95224332230585)"
Garage,MP EAST 72ND LLC,-73.95313422,40.76660201,"(40.766602011768384, -73.95313421795154)"
Garage,LM SUSIE PARKING LLC,-73.97140035,40.79359972,"(40.79359972354384, -73.97140035260232)"
Garage,NYC EAST MANAGEMENT CORP,-73.96111265,40.760067,"(40.76006700400763, -73.96111265392042)"
Garage,"I. R. PARKING, INC",-73.9925441,40.74446121,"(40.7444612063763, -73.99254409772298)"
Garage,555 WEST GARAGE CORP.,-74.00572038,40.74835336,"(40.748353359866705, -74.00572037538063)"
Garage,EHTE PARKING CORP,-73.96369437,40.75864332,"(40.75864332432004, -73.96369436876499)"
Garage,59-61 WEST 36TH STREET PARKING CORP,-73.98589887,40.75069116,"(40.75069116396184, -73.98589887002298)"
Garage,CHATHAM PARKING SYSTEMS INC.,-73.99993868,40.71319044,"(40.71319044488818, -73.99993867818306)"
Garage,CLARIDGE 87 PARKING LLC,-73.95315051,40.77936231,"(40.779362309055706, -73.95315051224608)"
Garage,COMFORT PARK LLC,-73.99323537,40.72500369,"(40.72500369084976, -73.99323536539522)"
Garage,FRIEND 54 MANAGEMENT LLC,-73.96806235,40.7579502,"(40.75795019772325, -73.96806235032918)"
Garage,NOBLE PARKING LLC,-73.97258914,40.74829809,"(40.74829809008204, -73.97258913839158)"
Garage,"1411 BROADWAY GARAGE, LLC",-73.98706766,40.75371601,"(40.753716012133694, -73.98706766241901)"
Garage,CHAMPION PARKING 61 LLC,-73.95920715,40.7593829,"(40.759382903747536, -73.95920714880465)"
Garage,"SCHNEEWEIS, IRVING &SCHNEEWEIS, MICHEAL",-73.96360191,40.75609068,"(40.756090682302094, -73.96360191333551)"
Garage,"CENTRAL PARKING SYSTEM OF NEW YORK,INC.",-74.01137718,40.71423289,"(40.71423289205817, -74.01137717859234)"
Garage,"CENTRAL PARKING SYSTEM OF NEW YORK,INC.",-74.01537482,40.71789119,"(40.7178911934619, -74.01537482460083)"
Garage,QUIK PARK EAST 94TH STREET LLC,-73.94542109,40.78230401,"(40.78230400878754, -73.94542109406304)"
Garage,SP PLUS CORPORATION,-73.9728014,40.75878582,"(40.75878581642611, -73.9728014005628)"
Garage,1065 GARAGE LLC,-73.95652183,40.78109007,"(40.781090069135175, -73.95652182536612)"
Garage,T CARDINAL COOKE HEALTH CARE CENTER,-77.51958437,40.11238534,"(40.11238533659802, -77.51958437167269)"
Garage,THE HERTZ CORPORATION,-73.97140035,40.79359972,"(40.79359972354384, -73.97140035260232)"
Garage,205 EAST 38TH STREET PARKING LLC,-73.97600337,40.74813417,"(40.74813416708923, -73.97600337463021)"
Garage,SHARP 22 PARKING LLC,-73.98054686,40.7368788,"(40.73687880155703, -73.98054685606057)"
Garage,QUIK PARK WATER STREET LLC,-74.00737575,40.70500258,"(40.70500258030051, -74.00737574783014)"
Garage,52 WEST 36TH ST. PARKING LLC,-73.98589887,40.75069116,"(40.75069116396184, -73.98589887002298)"
Garage,"OLYMPIA GARAGE, INC.",-74.00627175,40.73972933,"(40.7397293266129, -74.00627175113884)"
Garage,71 ST. GARDEN GARAGE INC.,-73.96065672,40.76806228,"(40.768062283616764, -73.9606567182028)"
Garage,W. 28TH GARAGE PARKING LLC,-73.99459005,40.74776874,"(40.74776874344622, -73.99459005208404)"
Garage,100 ML GARAGE CORP.,-74.00699002,40.7068663,"(40.706866299284606, -74.00699002392852)"
Garage,WATERVIEW GARAGE CORP,-73.9477808,40.77081838,"(40.77081837615128, -73.9477808044466)"
Garage,MANHATTAN PARKING SYSTEM - WEST 58TH. ST. CORP.,-73.96259629,40.7664106,"(40.76641059551194, -73.96259628995493)"
Garage,COLUMBUS 95 PARKING LLC,-73.96770985,40.79262711,"(40.792627114275895, -73.96770984810344)"
Garage,"ALLIANCE IMPALA PARKING, LLC",-73.95371654,40.77021433,"(40.77021432589259, -73.95371653716734)"
Garage,CHELNIK OPERATING LLC,-73.96836676,40.77060629,"(40.770606287747974, -73.9683667645775)"
Garage,117TH STREET CORP.,-73.93887062,40.79834093,"(40.79834093280115, -73.93887062276222)"
Garage,125 CHARLES PARKING LLC,-74.00801765,40.73417384,"(40.73417383871893, -74.00801764623127)"
Garage,MEAT MKT. GARAGE INC.,-74.00725332,40.74000374,"(40.740003744139194, -74.00725332089404)"
Garage,MP 225 LLC,-74.01648738,40.70926974,"(40.709269743589, -74.01648738471427)"
Garage,ENTERPRISE ANN PARKING LLC,-74.00662607,40.71020121,"(40.71020120822082, -74.00662606624425)"
Garage,QP 50 WEST 93RD STREET LLC,-73.96751595,40.79032423,"(40.79032423063705, -73.96751595238567)"
Garage,STOP-PARK GARAGE CORP.,-74.0037669,40.73126187,"(40.73126187183866, -74.00376690228312)"
Garage,REALITY PARKING LLC,-73.98448085,40.76450254,"(40.764502536970305, -73.98448084752273)"
Garage,RAPID MANAGEMENT CORP.,-73.97272691,40.74675557,"(40.74675557397083, -73.97272691441997)"
Garage,WEST 38TH STREET LLC,-73.99246711,40.75505318,"(40.75505318305637, -73.99246711407785)"
Garage,"401 EAST 86TH GARAGE, LLC",-73.94930697,40.77685748,"(40.776857482445486, -73.94930696946905)"
Garage,CHAMPION PARKING 77 LLC,-73.98009309,40.78218347,"(40.78218346662617, -73.98009308985594)"
Garage,"CENTRAL PARKING SYSTEM OF NEW YORK,INC.",-73.95985892,40.76200436,"(40.762004362938605, -73.95985891883001)"
Garage,CANDACE PARKING CORP.,-73.96785731,40.79389522,"(40.793895220773955, -73.96785730611923)"
Garage,"CENTRAL PARKING SYSTEM OF NEW YORK,INC.",-73.99559394,40.7390844,"(40.73908439642786, -73.99559393900273)"
Garage,WEST 108TH STREET PARKING GARAGE CORPORATION,-73.96583059,40.80218372,"(40.80218371634269, -73.96583059020277)"
Garage,QUIK PARK RIVERSIDE GARAGE LLC,-73.9475644,40.83473746,"(40.83473745887964, -73.94756440326175)"
Garage,"CENTRAL PARKING SYSTEM OF NEW YORK,INC.",-77.51958437,40.11238534,"(40.11238533659802, -77.51958437167269)"
Garage,"CENTRAL PARKING SYSTEM OF NEW YORK,INC.",-73.9614891,40.80198473,"(40.801984727411416, -73.96148909506633)"
Garage,GRAND CAR PARK LLC,-73.97694407,40.75180683,"(40.751806831767645, -73.97694406768352)"
Garage,"CENTRAL PARKING SYSTEM OF NEW YORK,INC.",-73.97649646,40.74175273,"(40.74175272557469, -73.97649645790503)"
Garage,20TH STREET ALEMAP LLC,-73.99508135,40.74140644,"(40.741406435433255, -73.9950813509898)"
Garage,"KINNEY PARKING SYSTEM, LLC",-73.97500654,40.78857221,"(40.78857221491443, -73.9750065397202)"
Garage,"CENTRAL PARKING SYSTEM OF NEW YORK,INC.",-73.99255582,40.736463,"(40.73646300153797, -73.99255581798758)"
Garage,"PARK IN AUTO SERVICES, INC.",-73.99625532,40.72107059,"(40.721070590460805, -73.99625531928852)"
Garage,"CENTRAL PARKING SYSTEM OF NEW YORK,INC.",-73.99222881,40.72485541,"(40.7248554104194, -73.99222880505457)"
Garage,PF PARKING CORP.,-74.00780654,40.71859736,"(40.71859735866955, -74.0078065398467)"
Garage,GEMAT PARKING CORP.,-73.96067524,40.76725808,"(40.767258080865965, -73.96067524375098)"
Garage,"CENTRAL PARKING SYSTEM OF NEW YORK,INC.",-73.94351331,40.83908317,"(40.83908316793566, -73.94351330662326)"
Garage,"CENTRAL PARKING SYSTEM OF NEW YORK,INC.",-73.93817525,40.84706204,"(40.84706204129148, -73.938175252836)"
Garage,"CENTRAL PARKING SYSTEM OF NEW YORK,INC.",-73.95126413,40.76670828,"(40.76670828080455, -73.95126412959159)"
Garage,F & F E. 70 ST. CORP.,-73.96738463,40.77088323,"(40.77088323261442, -73.96738463391779)"
Garage,ONE PARKING 200 PARK INC.,-73.97680249,40.75413984,"(40.754139837954376, -73.97680249424252)"
Garage,UPPER MANHATTAN PARKING LLC,-73.93839408,40.80591612,"(40.805916124771336, -73.9383940807948)"
Garage,A.M.D. LLC,-73.98519814,40.7693965,"(40.76939650442512, -73.98519813889219)"
Garage,12 GARAGE CORP.,-73.96498231,40.75310483,"(40.75310482645917, -73.96498230786719)"
Garage,"SWEETS PARKING I, INC.",-73.97582673,40.75751842,"(40.75751841900017, -73.97582673470141)"
Garage,MANHATTAN PARKING SYSTEM-PARK AVE. CORP.,-73.97513804,40.75556401,"(40.755564013844186, -73.97513803700467)"
Garage,"ONE PARKING STRATHMORE, LLC",-73.9500049,40.77541131,"(40.775411310681285, -73.95000490395303)"
Garage,BARMAX GARAGE CORP.,-73.97955874,40.78196379,"(40.78196379430775, -73.97955874358975)"
Garage,SAFEWAY PARKING CORP.,-73.95063887,40.77741799,"(40.777417987056, -73.95063887095594)"
Garage,"CENTRAL PARKING SYSTEM OF NEW YORK,INC.",-73.94627076,40.77646086,"(40.776460864559496, -73.94627076214475)"
Garage,PV PARKING IV CORP,-73.93604534,40.84435734,"(40.844357343797626, -73.9360453418761)"
Garage,440 EAST 81ST STREET LLC,-73.95057343,40.77316087,"(40.77316087053726, -73.95057342856519)"
Garage,"CENTRAL PARKING SYSTEM OF NEW YORK,INC.",-77.51958437,40.11238534,"(40.11238533659802, -77.51958437167269)"
Garage,MOTT PARK LLC,-73.99440437,40.72415837,"(40.72415836830795, -73.99440436523415)"
Garage,ENTERPRISE 230 PARKING LLC,-73.97913408,40.74285388,"(40.74285387870548, -73.97913408166315)"
Garage,ENTERPRISE 51 PARKING LLC,-73.99663541,40.76694086,"(40.766940863433305, -73.99663540833248)"
Garage,8TH STREET PARKING LLC,-73.99622582,40.73240643,"(40.73240643430964, -73.9962258166025)"
Garage,EDISON 9TH AVENUE PARKING CORPORATION,-73.99805096,40.75324188,"(40.75324188048219, -73.99805095937388)"
Garage,WORLD PARKING GARAGE LLC,-73.98158817,40.76852865,"(40.76852864622802, -73.98158816874908)"
Garage,COMMAND PARKING LLC,-73.98230063,40.76380506,"(40.76380505817002, -73.98230062621843)"
Garage,QUIK PARK COOPER LLC,-73.95138244,40.7777312,"(40.77773120318097, -73.95138243524019)"
Garage,QUIK PARK EAST 88TH STREET LLC,-73.95406321,40.78055115,"(40.780551147140784, -73.95406321206376)"
Garage,SUTTON PLACE GARAGE CORP.,-73.95994415,40.7583429,"(40.75834290421832, -73.95994414642774)"
Garage,ENTERPRISE 60TH STREET LLC,-73.99021596,40.7719222,"(40.77192220002161, -73.9902159597983)"
Garage,"PARK 117TH, LLC",-73.95420539,40.8048256,"(40.80482559994171, -73.95420539322119)"
Garage,520 EAST 81ST STREET GARAGE CORP.,-73.94879046,40.77240803,"(40.77240803345145, -73.94879046263203)"
Garage,ENTERPRISE 87 CORP.,-73.95652183,40.78109007,"(40.781090069135175, -73.95652182536612)"
Garage,ENTERPRISE 61ST LLC,-73.96612463,40.76380693,"(40.763806926948746, -73.96612463160592)"
Garage,FDR DRIVE GARAGE LLC,-73.95824629,40.76048046,"(40.760480457113786, -73.95824628919495)"
Garage,"BAS PARKING, INC.",-73.95306566,40.76655258,"(40.766552578515366, -73.95306566166602)"
Garage,ENTERPRISE 45TH OWNERSHIP CORP.,-73.96991703,40.75139075,"(40.75139075406613, -73.96991703238423)"
Garage,EAST 61ST STREET GARAGE LLC,-73.96033627,40.76056079,"(40.7605607932121, -73.96033627336479)"
Garage,"WORLD TOWER PARKING GARAGE, LLC",-73.94266045,40.8222604,"(40.822260396391535, -73.94266044790054)"
Garage,QUIK PARK WEST 58TH LLC,-73.97697165,40.76597795,"(40.765977951758934, -73.9769716521638)"
Garage,ENTERPRISE 62ND PARKING LLC,-73.96282233,40.76243354,"(40.76243353728483, -73.96282233302324)"
Garage,69 ENTERPRISE PARKING LLC,-73.96082322,40.76731852,"(40.76731851558099, -73.96082322207336)"
Garage,"BRICIN PARKING, CORP.",-73.94938299,40.77184837,"(40.771848368467545, -73.94938298933636)"
Garage,"ELI'S LEASING, INC.",-73.94635475,40.77977655,"(40.77977654573119, -73.94635474528373)"
Garage,ENTERPRISE 38 LLC,-73.99826021,40.75671399,"(40.75671398715479, -73.99826021009176)"
Garage,315 EAST 21ST STREET CO. LLC,-73.98098727,40.73625033,"(40.73625032668124, -73.98098726607365)"
Garage,"OCEAN CAR PARK, LLC",-74.01592726,40.70488369,"(40.70488368980268, -74.01592725890914)"
Garage,"WATERVIEW PARKING, INC.",-73.94372897,40.7763828,"(40.77638279869905, -73.94372897013712)"
Garage,ENTERPRISE 38 LLC,-73.99680199,40.75609364,"(40.756093643499874, -73.9968019927313)"
Garage,355 EAST 71ST STREET GARAGE LLC,-73.95639366,40.76727301,"(40.76727300837825, -73.95639366190568)"
Garage,RL MERCER STREET LLC,-74.00126988,40.72144668,"(40.72144667629038, -74.00126987962265)"
Garage,ENTERPRISE 37 EAST PARKING LLC,-73.97182156,40.74556413,"(40.745564134827085, -73.97182156356341)"
Garage,GARMENT ONE GARAGE LLC,-73.97912944,40.7461613,"(40.74616130150273, -73.97912943681877)"
Garage,301 PARK CORP.,-73.96170262,40.76359145,"(40.763591451944784, -73.96170261902068)"
Garage,167 EAST 77TH ST PARKING SERVICES LLC,-73.95887374,40.77321628,"(40.773216282089976, -73.9588737374361)"
Garage,AZ PARKING CORP,-73.98621337,40.74827033,"(40.748270334370325, -73.98621337110704)"
Garage,PARKING 56 LLC,-73.9756732,40.762813,"(40.7628129973505, -73.97567319925814)"
Garage,"RONEL OPERATING, LLC",-73.99515033,40.73575499,"(40.735754993731696, -73.99515032752892)"
Garage,"FSP 787 SEVENTH, LLC",-73.98262239,40.76195515,"(40.76195515064599, -73.9826223906044)"
Garage,"YORK PARKING, LLC",-73.95216138,40.76900875,"(40.76900874974624, -73.95216138332417)"
Garage,301-63 GARAGE LLC,-73.96236714,40.76305919,"(40.76305919086124, -73.96236714056968)"
Garage,"56-57 HOLDING, LLC",-73.98630673,40.76815876,"(40.76815876369282, -73.9863067278738)"
Garage,CAROLE STORAGE CORPORATION,-73.97159754,40.75466017,"(40.75466017393452, -73.97159754165726)"
Garage,STANDARD PARKING CORPORATION,-73.97856534,40.78323717,"(40.7832371706151, -73.97856533850779)"
Garage,QUIK PARK WARREN GARAGE LLC,-74.01055852,40.71535283,"(40.71535283256093, -74.01055851657418)"
Garage,EAST 61ST STREET GARAGE LLC,-73.95819577,40.76045848,"(40.760458480840946, -73.95819576680775)"
Garage,"CENTRAL PARKING SYSTEM OF NEW YORK, INC",-73.9957742,40.74169741,"(40.74169740654332, -73.99577420165488)"
Garage,ASPEN 36 LLC,-73.99092318,40.77488658,"(40.77488657521295, -73.99092318376078)"
Garage,"CENTRAL PARKING SYSTEM OF NEW YORK,INC.",-73.97896567,40.76191337,"(40.76191336988628, -73.97896566956)"
Garage,BASIC PARKING CORP.,-73.97186172,40.75302437,"(40.75302436997262, -73.97186171969031)"
Garage,NATIONS 47 PARKING LLC,-73.96975741,40.75319401,"(40.75319401100529, -73.96975740741871)"
Garage,"LPARK 2, LLC",-73.94442964,40.82804712,"(40.828047124480186, -73.94442963713712)"
Garage,56-57 OPERATING CORP.,-73.98678701,40.76749734,"(40.76749733729806, -73.98678700811158)"
Garage,AJAX OPERATING CORP.,-73.99352471,40.75469369,"(40.75469368566714, -73.9935247127901)"
Garage,LAFAYETTE PLACE PARKING LLC,-73.99180613,40.72941442,"(40.72941442162581, -73.99180613225192)"
Garage,EMPIRE 33 PARKING LLC,-73.98628555,40.74828132,"(40.74828132198075, -73.98628555014876)"
Garage,181 PARK CORP.,-73.93131019,40.84829053,"(40.84829053067262, -73.9313101890101)"
Garage,ACCESS PARKING CORP.,-73.99533751,40.74230123,"(40.742301234869934, -73.99533750559834)"
Garage,OLIANTHA GARAGE CORP.,-73.96284825,40.80010504,"(40.800105035646524, -73.96284824782974)"
Garage,ICE HOUSE PARKING CORP.,-74.00748562,40.71985448,"(40.71985447979465, -74.00748561724612)"
Garage,APPLE WEST 11TH STREET GARAGE CORP.,-74.00766059,40.73559565,"(40.73559564536281, -74.00766058782864)"
Garage,COLUMBIA GARAGE LLC,-73.97171768,40.79475533,"(40.79475533301053, -73.97171767566347)"
Garage,TORI OPERATING CORP.,-73.99549239,40.74653639,"(40.74653639008226, -73.99549239496064)"
Garage,SP PLUS CORPORATION,-73.9691575,40.76263028,"(40.76263028423503, -73.96915749859313)"
Garage,211 GARAGE CORP.,-73.98485925,40.73558667,"(40.735586670573056, -73.98485924525741)"
Garage,"KALIMIAN-KASHANI, ROUHOUAH",-73.95063118,40.7731856,"(40.77318559794322, -73.95063117686826)"
Garage,"53-10 ASSOCIATES, LLC",-73.99028531,40.7667319,"(40.76673190268495, -73.99028531353424)"
Garage,THOMPSON ST. PARKING CORP.,-73.99907634,40.72914847,"(40.72914846815636, -73.9990763444435)"
Garage,"POST OFFICE GARAGE, LLC",-73.99608402,40.75078528,"(40.750785281943244, -73.99608401648834)"
Garage,SUPPORT PARKING LLC,-73.96639229,40.7556112,"(40.75561119970559, -73.96639229035979)"
Garage,776 SIXTH AVE PARKING CORP,-73.99134229,40.7448893,"(40.744889303272, -73.99134229210792)"
Garage,201 PEARL PARKING CORP.,-74.00674114,40.7067675,"(40.706767502627876, -74.0067411431161)"
Garage,65 WEST 55TH STREET PARKING CORP,-73.9766841,40.76242071,"(40.76242070816173, -73.97668409550673)"
Garage,159 WEST 53RD PARKING CORP,-73.98126128,40.76271249,"(40.76271248631404, -73.98126128039407)"
Garage,GRACIE PUBLIC PARKING CORP.,-73.947623,40.778671,"(40.77867100042157, -73.94762299637955)"
Garage,444 MANHATTAN PARKING CORP.,-73.95479706,40.80589628,"(40.8058962761949, -73.95479705577826)"
Garage,ELEVEN RIVERSIDE DRIVE GARAGE CORP.,-73.98517387,40.78110006,"(40.78110006202702, -73.98517387215675)"
Garage,220 MADISON GARAGE CORP,-73.98191111,40.74921942,"(40.749219421950585, -73.98191110768474)"
Garage,MANHATTAN AVE. GARAGE CORP.,-73.95525496,40.80715903,"(40.807159028074814, -73.95525495505728)"
Garage,200 EAST PARKING CORP.,-73.96449986,40.76438832,"(40.76438832311424, -73.96449986342687)"
Garage,"FIFTH AVENUE CAR PARK, LLC",-73.94855783,40.79781044,"(40.79781044104941, -73.94855782800633)"
Garage,1050 FIFTH AVENUE PARKING CORP,-73.96033095,40.78162392,"(40.781623921945815, -73.96033094818989)"
Garage,311 PARKING CORP.,-73.98682769,40.76260347,"(40.76260346752565, -73.98682768721685)"
Garage,200 WEST GARAGE CORP.,-73.99509903,40.74634973,"(40.74634973107848, -73.99509903083012)"
Garage,ENTERPRISE 40TH PARKING CORP.,-73.97280564,40.74840793,"(40.74840793133938, -73.97280563756271)"
Garage,"TIMES SQUARE GARAGE, LLC",-73.9846994,40.75597739,"(40.75597739244894, -73.98469940268718)"
Garage,200 BRADHURST GARAGE CORP.,-73.94119784,40.82557253,"(40.82557253312548, -73.94119783727703)"
Garage,"THIRD AVENUE NORTH, LLC",-73.93921209,40.80014989,"(40.80014988909133, -73.93921209004712)"
Garage,MILLENNIUM GARAGE CORP.,-73.95893814,40.780026,"(40.780025998050995, -73.95893813648345)"
Garage,323 WEST 34TH STREET LLC,-73.99432979,40.75256655,"(40.75256654976554, -73.99432979299263)"
Garage,"ELEVENTH AVENUE GARAGE, CORP.",-74.00392334,40.75310459,"(40.75310459283599, -74.00392333850895)"
Garage,EAST 28TH STREET GARAGE CORP.,-73.98071499,40.74192094,"(40.741920939027125, -73.98071499376925)"
Garage,PARKING SYSTEMS PLUS INC,-73.95965024,40.76682406,"(40.76682405735486, -73.95965023987802)"
Garage,400 GARAGE CORP.,-73.94953866,40.77604514,"(40.77604514186251, -73.94953866441959)"
Garage,110 GARAGE CORP.,-73.94547124,40.77398474,"(40.773984735299706, -73.94547123796391)"
Garage,PRESTIGE GARAGE CORP.,-73.96129883,40.75647969,"(40.75647968543223, -73.96129883322268)"
Garage,"CENTRAL PARKING SYSTEM OF NEW YORK, INC",-73.98896349,40.74818829,"(40.74818828826226, -73.98896349236394)"
Garage,106 Mott Street Parking Corp,-73.99733774,40.71748048,"(40.7174804752998, -73.99733774036191)"
Garage,315 E 70 GARAGE CORP.,-73.95857782,40.76718873,"(40.76718872736107, -73.9585778219964)"
Garage,45TH STREET PARKING CORP,-73.9712056,40.75122091,"(40.75122090905669, -73.97120560247974)"
Garage,304 WEST 49TH PARKING CORP.,-73.9870733,40.76186516,"(40.7618651595253, -73.9870732997539)"
Garage,SURREY GARAGE CORP.,-73.95269454,40.77063111,"(40.770631111285375, -73.95269453898901)"
Garage,"THE CARNEGIE GARAGE, LTD.",-73.95038142,40.783739,"(40.78373900276993, -73.95038141572569)"
Garage,"CENTRAL PARKING SYSTEM OF NEW YORK, INC.",-73.97848201,40.78409626,"(40.78409625683772, -73.97848200878208)"
Garage,333 EAST 75TH STREET PARKING CORP.,-73.95604143,40.77038267,"(40.77038266547137, -73.95604143015696)"
Garage,249 PARKING CORP.,-74.00341781,40.74874321,"(40.748743205458176, -74.00341780894884)"
Garage,1501 GARAGE MANAGEMENT CORP.,-73.95049857,40.78643438,"(40.78643438173183, -73.95049857445176)"
Garage,116TH-117TH STREET PARKING CORP.,-73.94742115,40.80108164,"(40.801081643562604, -73.9474211542746)"
Garage,330 THIRD PARKING CORP.,-73.98244774,40.7398105,"(40.7398105023886, -73.98244773596998)"
Garage,605 PARKING CORP.,-73.96736886,40.76622815,"(40.76622814839984, -73.96736886338482)"
Garage,62 MULBERRY PARKING CORP,-73.99943726,40.71562779,"(40.715627791446174, -73.99943726157278)"
Garage,CHELSEA SEVENTH GARAGE CORP.,-73.99486454,40.74518595,"(40.745185947140094, -73.99486453806858)"
Garage,182 E. 73RD GARAGE CORP.,-73.96071294,40.77067804,"(40.770678040183135, -73.96071293736472)"
Garage,WEST 145TH GARAGE CORP,-73.9434254,40.82346022,"(40.823460215714306, -73.94342540053778)"
Garage,MANHATTAN AVE. GARAGE CORP.,-73.93579664,40.79870706,"(40.79870705521746, -73.93579664429325)"
Garage,165 E 77 ST. GARAGE CORP.,-73.95908307,40.77332615,"(40.773326146160095, -73.95908307414692)"
Garage,"NEW GARDEN GARAGE, LLC",-73.99340618,40.7488803,"(40.74888030483655, -73.99340617760869)"
Garage,NYULMC G GARAGE CORP.,-73.97283255,40.74435943,"(40.74435943257654, -73.97283255206597)"
Garage,UNIVERSITY 10 PARKING LLC,-73.99250947,40.73142363,"(40.73142363036355, -73.99250947497119)"
Garage,EAST 14TH GARAGE CORP.,-73.99324509,40.7358592,"(40.73585919835799, -73.99324508849094)"
Garage,210 CENTRAL PARK SOUTH PARKING CORP.,-73.97962107,40.76709282,"(40.767092815752505, -73.97962106924473)"
Garage,PREVOST GARAGE CORP.,-73.95534657,40.76751689,"(40.767516889272265, -73.95534657073618)"
Garage,S&S 311 LLC,-73.93874065,40.79828871,"(40.798288713960375, -73.93874064671367)"
Garage,53RD PARKING CORP.,-73.98515594,40.76435715,"(40.76435715460628, -73.98515593959957)"
Garage,"280 BROADWAY CAR PARK, LLC",-74.00608901,40.71441719,"(40.714417192216374, -74.00608900777661)"
Garage,250 E. 63RD GARAGE CORP.,-73.9636231,40.76357012,"(40.76357011640058, -73.96362309517377)"
Garage,NYULMC A GARAGE CORP.,-73.9750494,40.7416591,"(40.741659099637815, -73.9750493993653)"
Garage,245 E. GARAGE CORP.,-73.9637097,40.76362504,"(40.76362503856399, -73.96370970271643)"
Garage,"KINNEY PARKING SYSTEM, INC.",-73.97866897,40.76407343,"(40.7640734277385, -73.97866897380925)"
Garage,118 PARKING CORP.,-73.94214075,40.80080464,"(40.80080464140376, -73.94214075459034)"
Garage,170 PARK ROW PARKING CORP,-74.00023086,40.71313829,"(40.713138294202224, -74.00023085842436)"
Garage,WEST 161ST PARKING CORP,-73.94097207,40.83568943,"(40.835689432967655, -73.94097206712378)"
Garage,44 ELIZABETH STREET PARKING CORP,-73.99674616,40.71690681,"(40.71690680522789, -73.99674615511522)"
Garage,PEAK TIME PARKING INC.,-73.93224784,40.85746663,"(40.85746662921292, -73.93224783980567)"
Garage,10 EAST END AVENUE GARAGE CORP.,-73.9477808,40.77081838,"(40.77081837615128, -73.9477808044466)"
Garage,444 MANHATTAN PARKING CORP.,-73.95550804,40.80681878,"(40.80681878022126, -73.95550804060782)"
Garage,SOUTH PLAZA GARAGE LLC,-77.51958437,40.11238534,"(40.11238533659802, -77.51958437167269)"
Garage,MP EAST 87TH LLC,-73.94627076,40.77646086,"(40.776460864559496, -73.94627076214475)"
Garage,CHAMPION 221 LLC,-73.97972575,40.76713675,"(40.76713675007467, -73.97972574834198)"
Garage,"PARTNERSHIP 92, DAVID GOLDMAN AND BLDG BACAEL LLC",-73.96334526,40.75677679,"(40.756776787264606, -73.9633452620549)"
Garage,61 JANE PARKING CORP.,-74.00587827,40.73814563,"(40.738145625469656, -74.00587827374288)"
Garage,340 EAST 74TH STREET PARKING CORP,-73.95637765,40.7696774,"(40.76967739508274, -73.95637764666981)"
Garage,515 NINTH AVENUE PARKING INC,-73.99431866,40.75612923,"(40.756129229479534, -73.99431866125)"
Garage,157 57TH THIRD CORP,-73.96740063,40.76032971,"(40.760329705619334, -73.96740063082353)"
Garage,100 WILLIAM GARAGE CORP.,-74.00712005,40.70858451,"(40.70858451332387, -74.00712005309734)"
Garage,SYLVAN 71ST STREET GARAGE CORP.,-77.51958437,40.11238534,"(40.11238533659802, -77.51958437167269)"
Garage,"ELEMENT PARKING MGMT, LLC",-73.989133,40.771063,"(40.77106299965256, -73.98913299591611)"
Garage,PARK AMERICA CORP,-73.96685821,40.75500475,"(40.75500474587929, -73.96685821283799)"
Garage,QUIK PARK 775 GARAGE LLC,-73.96664375,40.79404858,"(40.7940485808299, -73.9666437522384)"
Garage,"KINNEY PARKING SYSTEM, LLC",-73.9582606,40.76068906,"(40.7606890628257, -73.95826059737976)"
Garage,3896 PARKING CORP.,-73.91840741,40.865184,"(40.86518400139399, -73.91840741315542)"
Garage,160 PARKING CORP.,-73.96473383,40.76567568,"(40.76567567891482, -73.96473382779567)"
Garage,ELBERT HOLDING CORP.,-73.99501995,40.74215026,"(40.742150260286714, -73.99501994760485)"
Garage,"KINNEY PARKING SYSTEM, INC.",-73.97532853,40.75775711,"(40.75775710617169, -73.97532852613632)"
Garage,420 EAST 72ND GARAGE CORP.,-73.95534657,40.76751689,"(40.767516889272265, -73.95534657073618)"
Garage,"CENTRAL PARKING SYSTEM OF NEW YORK,INC.",-73.97515586,40.78520172,"(40.785201715449034, -73.97515585869253)"
Garage,220 EAST 63RD GARAGE CORP.,-73.9641031,40.76377338,"(40.76377337790351, -73.9641031015917)"
Garage,"KINNEY PARKING SYSTEM, LLC",-73.98920934,40.74549846,"(40.74549845759647, -73.9892093441795)"
Garage,W. 79TH STREET PARKING CORP.,-73.97856534,40.78323717,"(40.7832371706151, -73.97856533850779)"
Garage,9495 PARKING CORP.,-73.94774933,40.78332613,"(40.783326129281214, -73.94774932926609)"
Garage,QUIK PARK TRIBECA II LLC,-74.01028208,40.72391925,"(40.723919251263105, -74.01028207729765)"
Garage,"CENTRAL PARKING SYSTEM OF NEW YORK,INC.",-73.94097207,40.83568943,"(40.835689432967655, -73.94097206712378)"
Garage,"CENTRAL PARKING SYSTEM OF NEW YORK,INC.",-73.94084492,40.83644142,"(40.83644141872332, -73.94084491521889)"
Garage,WOOSTER PARKING CORP.,-74.00368333,40.72069182,"(40.72069181572596, -74.0036833307103)"
Garage,"SHARP CAR PARK, LLC",-73.96369437,40.75864332,"(40.75864332432004, -73.96369436876499)"
Garage,FLEUR GARAGE CORP.,-73.99924942,40.73913663,"(40.73913662855311, -73.99924941735831)"
Garage,"HAMMER, GEOFFREY ET AL",-73.97656637,40.78923128,"(40.7892312782608, -73.9765663677269)"
Garage,"CENTRAL PARKING SYSTEM OF NEW YORK,INC.",-73.95182095,40.79045598,"(40.79045597500693, -73.95182095067139)"
Garage,GEMAT PARKING CORP.,-73.96067524,40.76725808,"(40.767258080865965, -73.96067524375098)"
Garage,525-535 GARAGE CORP.,-73.94610184,40.77550836,"(40.77550836169268, -73.94610183519423)"
Garage,174 PARKING MGMT LLC.,-73.93604534,40.84435734,"(40.844357343797626, -73.9360453418761)"
Garage,INTERTOWN PARKING CORP.,-73.94678329,40.7721601,"(40.772160097381985, -73.94678329286688)"
Garage,980 FIFTH AVENUE CORPORATION,-73.96357232,40.77719773,"(40.777197733017054, -73.96357232304058)"
Garage,CONNAUGHT TOWER CAR PARK INC,-73.96635177,40.7572251,"(40.75722509813542, -73.96635177101938)"
Garage,QUIK PARK HUDSON LLC,-73.98869139,40.77783148,"(40.777831480630454, -73.98869138991914)"
Garage,MINETTA LANE PARKING LLC,-74.00051596,40.73061417,"(40.73061417010677, -74.0005159595695)"
Garage,130 EAST 18TH GARAGE CORP.,-73.98666689,40.73633072,"(40.736330722155344, -73.98666689384287)"
Garage,58TH & 7TH PARKING LLC,-73.9792787,40.76520437,"(40.76520437267967, -73.97927869870011)"
Garage,"RIVERWATCH GARAGE, LLC",-74.01743904,40.70704634,"(40.70704634493179, -74.01743903878453)"
Garage,"PRO PARK AMERICA NEW YORK, LLC",-73.96844793,40.79740864,"(40.79740863709987, -73.96844793330676)"
Garage,"CENTRAL PARKING SYSTEM OF NEW YORK,INC.",-73.98801803,40.74757063,"(40.747570625367764, -73.98801802954507)"
Garage,ROCKMILL GARAGE CORP.,-73.94700974,40.78249963,"(40.782499626414825, -73.94700973901821)"
Garage,9-11 LLC,-73.98116095,40.74730896,"(40.74730895679566, -73.98116095168815)"
Garage,POWER PARKING S CORP.,-73.92617845,40.86381414,"(40.86381414107794, -73.92617845317197)"
Garage,785 GARAGE CORP.,-73.97274487,40.76462662,"(40.76462661647525, -73.97274486606972)"
Garage,"2280 FDB, LLC",-73.95236779,40.80851651,"(40.808516509669815, -73.95236778885155)"
Garage,NICE PARK LLC,-73.98585631,40.73014944,"(40.730149439001885, -73.98585631177798)"
Garage,QUIK PARK EAGLE LLC,-73.97336103,40.74942911,"(40.749429107469865, -73.9733610264295)"
Garage,"RENOIR CAR PARK, LLC",-73.96403091,40.76375963,"(40.76375963167554, -73.96403091090507)"
Garage,88TH GARAGE CORP.,-73.97119666,40.78859328,"(40.78859328359087, -73.97119666187504)"
Garage,NEW YORK SKYPORTS INC,-77.51958437,40.11238534,"(40.11238533659802, -77.51958437167269)"
Garage,MARK TWAIN GARAGE CORP,-73.99823549,40.73620797,"(40.736207966594336, -73.9982354866375)"
Garage,340 E. 34 GARAGE CORP.,-73.9745829,40.74422534,"(40.74422533939709, -73.97458289714352)"
Garage,ENTERPRISE YORK GARAGE LLC,-73.95778008,40.76136135,"(40.76136134990866, -73.95778007602088)"
Garage,WEST PLAZA GARAGE LLC,-73.9789977,40.74048513,"(40.74048513379344, -73.97899769504247)"
Garage,AMPCO SYSTEM PARKING,-73.97464518,40.76074324,"(40.760743239393435, -73.97464517897865)"
Garage,CONCERTO GARAGE CORP.,-73.98757693,40.77122478,"(40.77122478199811, -73.98757692627163)"
Garage,"ABM PARKING SERVICES, INC",-73.98396172,40.76157383,"(40.76157382560385, -73.98396172072285)"
Garage,165 EAST PARKING CORP.,-73.96149668,40.77013485,"(40.770134846285615, -73.96149668214204)"
Garage,24TH STREET MMP GARAGE LLC,-77.51958437,40.11238534,"(40.11238533659802, -77.51958437167269)"
Garage,EMPIRE PARKING CORP.,-74.01053799,40.72239314,"(40.72239314269397, -74.01053798597952)"
Garage,INTERNATIONAL HOUSE,-73.96169515,40.8142345,"(40.8142344976875, -73.96169515259028)"
Garage,"LEONARD STREET PARKING, LLC",-74.00467877,40.71716202,"(40.71716201883659, -74.00467877270118)"
Garage,EZ2 PARK LLC,-73.95489691,40.77581681,"(40.77581680580157, -73.95489690644007)"
Garage,59 ALLEN STREET GARAGE CORP.,-73.99145773,40.71710416,"(40.717104157033425, -73.9914577300306)"
Garage,CHELSEA ENCLAVE GARAGE LLC,-74.00241435,40.74502135,"(40.74502135134888, -74.00241434683247)"
Garage,"PLAZA 400 GARAGE PARTNERS, LLC",-73.96307776,40.75748759,"(40.75748759081678, -73.96307776310553)"
Garage,145 EAST 16TH STREET GARAGE CORP.,-73.98687271,40.73565279,"(40.73565279177324, -73.986872707258)"
Garage,WEST END TOWERS GARAGE CORP.,-73.98856925,40.77421116,"(40.77421116024859, -73.98856924869627)"
Garage,"CENTRAL PARKING SYSTEM OF NEW YORK,INC.",-73.93131019,40.84829053,"(40.84829053067262, -73.9313101890101)"
Garage,300 PARKING INC.,-73.98425316,40.76559217,"(40.765592168531875, -73.98425316337983)"
Garage,EAST 46TH REALTY LLC,-73.96966768,40.75208236,"(40.75208236495794, -73.96966768029743)"
Garage,328 WEST 39TH STREET PARKING LLC,-77.51958437,40.11238534,"(40.11238533659802, -77.51958437167269)"
Garage,560 W 43RD STREET PARKING CORP,-73.9972133,40.76036997,"(40.760369965975514, -73.99721329557751)"
Garage,30 GARAGE CORP.,-73.9472712,40.77152354,"(40.77152354215533, -73.94727119554736)"
Garage,"ONE PARKING RC, INC.",-73.9791654,40.7581037,"(40.75810370182257, -73.97916540049906)"
Garage,250 WEST PARKING CORP.,-73.99888129,40.74224368,"(40.74224368404842, -73.9988812910098)"
Garage,33 ST OPERATING LLC,-73.98621337,40.74827033,"(40.748270334370325, -73.98621337110704)"
Garage,WEST 90TH GARAGE CORP.,-73.97038391,40.78909536,"(40.789095363543794, -73.97038390702454)"
Garage,145 BRADHURST GARAGE CORP.,-73.94264122,40.82361079,"(40.82361078775194, -73.94264121851711)"
Garage,"NARRAGANSETT PARTNERS, L.L.C.",-73.96690019,40.76494897,"(40.764948965105745, -73.96690019411568)"
Garage,QUIK PARK BROADWAY GARAGE LLC,-77.51958437,40.11238534,"(40.11238533659802, -77.51958437167269)"
Garage,80 JOHN GARAGE CORP.,-74.00688559,40.70843906,"(40.70843905513205, -74.00688558850159)"
Garage,"KINNEY PARKING SYSTEM, LLC",-73.99077582,40.77006131,"(40.77006131299408, -73.99077582132968)"
Garage,EAST VILLAGE PARKING LLC,-73.99115013,40.72442166,"(40.72442166089238, -73.99115013131947)"
Garage,"PARK 127 MGMT, LLC",-73.95059181,40.811642,"(40.81164200166336, -73.9505918134522)"
Garage,"CENTRAL PARKING SYSTEM OF NEW YORK, INC",-73.9728014,40.75878582,"(40.75878581642611, -73.9728014005628)"
Garage,525-535 GARAGE CORP.,-73.94579505,40.77537647,"(40.77537647036446, -73.9457950464788)"
Garage,"MAIDEN PARKING MGMT, LLC",-74.00539932,40.70571358,"(40.705713583966244, -74.00539932139957)"
Garage,"CENTRAL PARKING SYSTEM OF NEW YORK,INC.",-77.51958437,40.11238534,"(40.11238533659802, -77.51958437167269)"
Garage,ALLIE GARAGE CORP.,-73.98523045,40.77023091,"(40.77023090945557, -73.98523044573439)"
Garage,"REGAL CAR PARK, LLC",-73.9756732,40.762813,"(40.7628129973505, -73.97567319925814)"
Garage,"SUPERPARK REALTY, LLC",-73.99860314,40.75534711,"(40.755347108669184, -73.99860314340592)"
Garage,5TH AVENUE GARAGE CORP.,-73.99320171,40.73659204,"(40.736592044865525, -73.99320171300515)"
Garage,"KINNEY PARKING SYSTEM, LLC",-73.97590088,40.76209118,"(40.76209117784194, -73.97590088118818)"
Garage,1510 LEX GARAGE CORP,-73.95028888,40.78676091,"(40.78676091471999, -73.95028888485443)"
Garage,ENTERPRISE WORLD PARKING LLC,-73.96753826,40.75198297,"(40.751982973643145, -73.96753825831024)"
Garage,"FIRST AVENUE PARKING, LLC",-73.97246049,40.74521022,"(40.74521021666899, -73.97246048847664)"
Garage,"EDISON NY PARKING, LLC",-73.98351557,40.7556506,"(40.75565060441999, -73.98351557320764)"
Garage,RELIANT PARKING LLC,-73.97750994,40.78619854,"(40.78619853703055, -73.97750993775612)"
Garage,454 MANAVE GARAGE CORP.,-73.95525496,40.80715903,"(40.807159028074814, -73.95525495505728)"
Garage,KINNEY-WEST END AVENUE INC,-73.97387395,40.79436335,"(40.79436334562362, -73.97387394597743)"
Garage,"ABM PARKING SERVICES, INC",-73.98237763,40.74564583,"(40.74564583140683, -73.98237762904651)"
Garage,"DEAL FOREVER, INC",-73.98790077,40.75730897,"(40.75730897454125, -73.98790077202813)"
Garage,EAST 97TH PARKING CORP.,-73.94993236,40.78545427,"(40.78545426730592, -73.94993236337781)"
Garage,107 GARAGE CORP.,-73.99788184,40.73690787,"(40.7369078726219, -73.99788184003305)"
Garage,QUIK PARK HUDSON 180 LLC,-73.98848549,40.77838315,"(40.77838315223703, -73.98848548648573)"
Garage,QUIK PARK WEST 57 LLC,-73.97463339,40.76325468,"(40.76325467665233, -73.97463339329103)"
Garage,QUIK PARK WEST 50TH STREET LLC,-73.98396172,40.76157383,"(40.76157382560385, -73.98396172072285)"
Garage,UNIVERSAL PARKING LLC,-73.99533789,40.73673762,"(40.736737623059504, -73.99533789491343)"
Garage,KENSINGTON ENTERPRISES LLC,-73.96627579,40.79323054,"(40.79323054424429, -73.96627578882814)"
Garage,NICE PARK 22 LLC,-73.98646893,40.73387963,"(40.73387963420238, -73.98646892858021)"
Garage,AXA EQUITABLE LIFE INSURANCE COMPANY,-73.98262239,40.76195515,"(40.76195515064599, -73.9826223906044)"
Garage,224 MULBERRY STREET CONDOMINIUM,-73.99606404,40.72243473,"(40.72243472904219, -73.99606403633898)"
Garage,THE BERGER'S PARKING CORPORATION,-73.95947753,40.77181119,"(40.77181118970066, -73.9594775321567)"
Garage,PARK 18 WEST LLC,-73.99626145,40.74037445,"(40.74037445332246, -73.99626145161697)"
Garage,"CENTRAL PARKING SYSTEM OF NEW YORK,INC.",-74.00671239,40.70775287,"(40.707752874497395, -74.00671238779245)"
Garage,"CENTRAL PARKING SYSTEM OF NEW YORK, INC",-73.99604775,40.75375784,"(40.75375784147327, -73.99604774811701)"
Garage,102 BRADHURST AVE. CORP.,-73.94181283,40.82473022,"(40.824730217166895, -73.94181282781828)"
Garage,"EDISON NY PARKING, LLC",-74.00573457,40.74555372,"(40.745553715301895, -74.00573457066531)"
Garage,ARCHIVES GARAGE CORP.,-74.00769989,40.73223332,"(40.732233319193305, -74.00769989144736)"
Garage,SURREY GARAGE 54TH STREET LLC,-73.96806235,40.7579502,"(40.75795019772325, -73.96806235032918)"
Garage,MP 53 LLC,-73.96826484,40.75722015,"(40.75722015155255, -73.96826483518295)"
Garage,79TH STREET PARKING LLC,-73.96076755,40.77602206,"(40.776022064712556, -73.96076755363453)"
Garage,206 E. 59TH ST. GARAGE CORP.,-73.96615114,40.76136137,"(40.76136136885068, -73.96615114382787)"
Garage,COSMO PARKING LLC,-73.99094706,40.75859105,"(40.758591049915374, -73.99094706211642)"
Garage,"MP 16, LLC",-73.99185113,40.74497443,"(40.74497442763743, -73.99185113405801)"
Garage,MP 325 LLC,-74.01475407,40.71663692,"(40.71663691929203, -74.01475407067669)"
Garage,TWO FIFTH PARKING LLC,-73.99660831,40.73192062,"(40.73192062465118, -73.99660831115821)"
Garage,WALL STREET GARAGE PARKING CORP.,-74.00986102,40.70659436,"(40.706594357508216, -74.00986101521104)"
Garage,1345 LEASEHOLD LLC,-73.97853953,40.76249518,"(40.762495176785606, -73.97853952516776)"
Garage,AMPCO SYSTEM PARKING,-73.96855471,40.76251484,"(40.76251484208311, -73.96855470923397)"
Garage,EMBASSY PARKING LLC,-73.95851786,40.77651258,"(40.77651258478388, -73.95851786321268)"
Garage,"CENTRAL PARKING SYSTEM OF NEW YORK,INC.",-73.9560347,40.78057936,"(40.78057936351833, -73.95603469857129)"
Garage,QUIK PARK HUDSON VI LLC,-73.99107484,40.77477405,"(40.77477405281555, -73.9910748401638)"
Garage,CROYDEN PARKING LLC,-73.95990145,40.78129989,"(40.78129989454938, -73.95990144939537)"
Garage,"EAST 78TH OPERATING, LLC",-73.95228909,40.77216525,"(40.77216525347162, -73.95228908882459)"
Garage,"LAZ PARKING NEW YORK, NEW JERSEY LLC",-73.97462438,40.73007066,"(40.730070658454395, -73.97462437688132)"
Garage,"PROPARK AMERICA NEW YORK, LLC",-73.9598646,40.77654051,"(40.776540509100094, -73.95986459876464)"
Garage,SUPERIOR PARKING LLC,-73.94983481,40.77114866,"(40.77114865750011, -73.94983480935903)"
Garage,IMPERIAL PARKING US LLC,-73.97917874,40.75006709,"(40.75006708753899, -73.97917874144797)"
Garage,MARKET 15 PARKING LLC,-77.51958437,40.11238534,"(40.11238533659802, -77.51958437167269)"
Garage,MP 93 LLC,-73.94747243,40.78187404,"(40.781874038645995, -73.9474724304387)"
Garage,MP MANHATTAN PLAZA LLC,-77.51958437,40.11238534,"(40.11238533659802, -77.51958437167269)"
Garage,"PROPARK AMERICA NEW YORK, LLC",-73.98575197,40.74564081,"(40.745640808762495, -73.98575197314833)"
Garage,"QUIK PARK EAST 67TH STREET, LLC",-73.95799109,40.76446848,"(40.764468475942785, -73.95799109304546)"
Garage,MP WEST 12 LLC,-74.00993409,40.7370996,"(40.737099596325606, -74.00993409059637)"
Garage,"787 HOLDINGS, LLC",-73.98262239,40.76195515,"(40.76195515064599, -73.9826223906044)"
Garage,"PROPARK AMERICA NEW YORK, LLC",-73.96841543,40.79741412,"(40.797414117653325, -73.96841542514183)"
Garage,RAPID RIVERSIDE CORP.,-73.98225167,40.78497521,"(40.78497521380669, -73.98225166594061)"
Garage,CUSTOM PARKING LLC,-73.96488224,40.76492092,"(40.76492092025785, -73.96488223611956)"
Garage,IMPERIAL PARKING US LLC,-77.51958437,40.11238534,"(40.11238533659802, -77.51958437167269)"
Garage,MP 56 LLC,-73.96768262,40.75944323,"(40.75944323277954, -73.96768261900469)"
Garage,GATEWAY PARKING CORP,-74.01613786,40.71071628,"(40.71071628312301, -74.01613786041958)"
Garage,"KINNEY PARKING SYSTEM, LLC",-73.97532853,40.75775711,"(40.75775710617169, -73.97532852613632)"
Garage,"IMPERIAL PARKING (U.S.), LLC",-74.00621137,40.71140893,"(40.71140892683577, -74.00621137332946)"
Garage,PARK ON 44TH CORP.,-73.9726924,40.75171258,"(40.75171258088681, -73.97269240170475)"
Garage,ELBA OPERATING CORP.,-74.00926545,40.72934847,"(40.72934846625175, -74.00926544762632)"
Garage,LKDG ASSOCIATES,-73.96334526,40.75677679,"(40.756776787264606, -73.9633452620549)"
Garage,KIDS PARKING CORP.,-74.00606386,40.7155398,"(40.715539800779354, -74.00606385928269)"
Garage,C.V. PARKING LLC,-73.93897105,40.85426457,"(40.85426456959301, -73.93897104734903)"
Garage,S.T.A. PARKING CORP.,-73.95325455,40.77003848,"(40.77003847602816, -73.95325454797825)"
Garage,IMPARK HSW LLC,-73.95810835,40.77318581,"(40.773185814239184, -73.95810834809362)"
Garage,DILIGENT PARKING LLC,-77.51958437,40.11238534,"(40.11238533659802, -77.51958437167269)"
Garage,METROPOLITAN STORAGE CORP.,-73.94377984,40.78455665,"(40.78455664690754, -73.94377983866669)"
Garage,THE NEW YORK AND PRESBYTERIAN HOSPITAL,-77.51958437,40.11238534,"(40.11238533659802, -77.51958437167269)"
Garage,UNIQUE PARKING LLC,-73.98876285,40.73952858,"(40.73952858228769, -73.98876284566157)"
Garage,21 EAST 12TH STREET PARKING LLC,-73.99341485,40.7341904,"(40.7341903980676, -73.99341484788401)"
Garage,MP UPTOWN LLC,-73.94018528,40.78631421,"(40.786314211700244, -73.94018528210077)"
Garage,KRW OPERATING CORP.,-73.96844793,40.79740864,"(40.79740863709987, -73.96844793330676)"
Garage,55 E. 125 ST. CORP.,-73.94426998,40.80726952,"(40.807269519570376, -73.94426998337795)"
Garage,"LAZ PARKING NEW YORK, NEW JERSEY LLC",-73.97523807,40.72921992,"(40.72921991781215, -73.97523806654134)"
Garage,MANHATTAN PARKING EAST 48TH STREET CORP.,-77.51958437,40.11238534,"(40.11238533659802, -77.51958437167269)"
Garage,72ND STREET LLC,-73.9536798,40.765938,"(40.76593800495037, -73.95367979867872)"
Garage,VALUE MGMT. CORP.,-74.00273526,40.73814025,"(40.738140253504085, -74.00273525545441)"
Garage,110 EAST 16TH STREET ASSOCIATES LLC,-73.98861195,40.73562004,"(40.73562003986076, -73.98861195286113)"
Garage,RAPID 83 STREET PARKING CORP.,-73.9519618,40.77542587,"(40.775425866806785, -73.95196180432333)"
Garage,QUIK PARK EAST 72 LLC,-73.95313422,40.76660201,"(40.766602011768384, -73.95313421795154)"
Garage,"HAMMER, GEOFFREY ET AL",-73.97663858,40.78926148,"(40.789261484969686, -73.97663858284145)"
Garage,SP PLUS CORPORATION,-73.99220436,40.74880612,"(40.748806121566346, -73.9922043565897)"
Garage,WELLESLEY GARAGE CORP.,-73.96084392,40.76896262,"(40.7689626222786, -73.960843916038)"
Garage,"PROPARK AMERICA NEW YORK, LLC",-73.98832074,40.77072257,"(40.77072257250959, -73.98832073803278)"
Garage,"AREA GARAGE, LLC",-73.98105088,40.71557683,"(40.71557682764561, -73.98105087999386)"
Garage,QUIK PARK 1133 GARAGE LLC,-73.9833242,40.75594152,"(40.755941519891046, -73.98332419872982)"
Garage,COLUMBUS 95TH ST LLC,-73.96705659,40.79178979,"(40.79178978660637, -73.96705658637177)"
Garage,"PROPARK AMERICA NEW YORK, LLC",-73.96223132,40.80522649,"(40.80522649394652, -73.96223132312306)"
Garage,FANDA PARKING LLC,-73.95637765,40.7696774,"(40.76967739508274, -73.95637764666981)"
Garage,QUIK PARK WEST 23RD STREET GARAGE LLC,-74.00223396,40.74688504,"(40.746885039741464, -74.00223396486841)"
Garage,"PROPARK AMERICA NEW YORK, LLC",-73.97103774,40.78864539,"(40.78864539367313, -73.97103774415604)"
Garage,RAPID E. 77TH ST. CORP.,-73.95931409,40.77340308,"(40.77340308064395, -73.95931409424317)"
Garage,AUDUBON PARKING MGMT LLC.,-73.93315062,40.84764386,"(40.84764386129576, -73.93315061582638)"
Garage,MID TOWN PARKING CORP.,-73.97182746,40.75721559,"(40.757215588426654, -73.97182746323014)"
Garage,PRONTO PARKING CORP,-73.96462193,40.76564545,"(40.76564545245186, -73.96462193358475)"
Garage,"WEST 129TH STREET, L.L.C.",-73.95820754,40.8164867,"(40.816486701760546, -73.95820753811466)"
Garage,EAST 79TH STREET PARKING LLC,-73.95000444,40.77122009,"(40.77122009445874, -73.95000444009162)"
Garage,THE HERTZ CORPORATION,-77.51958437,40.11238534,"(40.11238533659802, -77.51958437167269)"
Garage,EAST RIVER PARKING CORP.,-73.94693392,40.78248587,"(40.78248586785229, -73.94693392063988)"
Garage,IMPARK 89 LLC,-73.95759334,40.78251499,"(40.782514985915874, -73.95759333867957)"
